{"type":"FeatureCollection","features":[{"type":"Feature","properties":{"﻿施設ID":"2482","施設名":"あすてっぷＫＯＢＥ（男女共同参画センター）","郵便番号":"650-0016","住所":"中央区橘通3-4-3","方書":"","電話番号":"078-361-6977","FAX番号":"078-361-6477","行政区コード":"中央区","カテゴリリスト":"人権・男女共同参画"},"geometry":{"type":"Point","coordinates":[135.174119,34.681848]}},{"type":"Feature","properties":{"﻿施設ID":"2483","施設名":"神戸婦人大学","郵便番号":"650-0016","住所":"中央区橘通3-4-3","方書":"「あすてっぷKOBE」（神戸市男女共同参画センター）3階","電話番号":"078-361-7138","FAX番号":"078-361-7165","行政区コード":"中央区","カテゴリリスト":"人権・男女共同参画"},"geometry":{"type":"Point","coordinates":[135.174126,34.681832]}},{"type":"Feature","properties":{"﻿施設ID":"2484","施設名":"東灘区ボランティアセンター","郵便番号":"658-8570","住所":"東灘区住吉東町5-2-1","方書":"東灘区役所1階15番窓口","電話番号":"078-841-6941","FAX番号":"078-841-7999","行政区コード":"東灘区","カテゴリリスト":"人権・男女共同参画"},"geometry":{"type":"Point","coordinates":[135.265444,34.72027]}},{"type":"Feature","properties":{"﻿施設ID":"2485","施設名":"灘区ボランティアセンター","郵便番号":"657-8570","住所":"灘区桜口町4-2-1","方書":"灘区役所６階","電話番号":"078-843-7040","FAX番号":"078-843-7077","行政区コード":"灘区","カテゴリリスト":"人権・男女共同参画"},"geometry":{"type":"Point","coordinates":[135.239685,34.712348]}},{"type":"Feature","properties":{"﻿施設ID":"2486","施設名":"中央区ボランティアセンター","郵便番号":"651-8570","住所":"中央区雲井通5-1-1","方書":"中央区役所5階","電話番号":"078-232-1447","FAX番号":"078-232-1244","行政区コード":"中央区","カテゴリリスト":"人権・男女共同参画"},"geometry":{"type":"Point","coordinates":[135.197783,34.695102]}},{"type":"Feature","properties":{"﻿施設ID":"2487","施設名":"兵庫区ボランティアセンター","郵便番号":"652-8570","住所":"兵庫区荒田町1-21-1","方書":"兵庫区役所3階","電話番号":"078-579-3304","FAX番号":"078-574-5771","行政区コード":"兵庫区","カテゴリリスト":"人権・男女共同参画"},"geometry":{"type":"Point","coordinates":[135.165258,34.680611]}},{"type":"Feature","properties":{"﻿施設ID":"2488","施設名":"北区ボランティアセンター","郵便番号":"651-1195","住所":"北区鈴蘭台西町1-25-1","方書":"北区役所2階","電話番号":"078-593-9910","FAX番号":"078-593-9822","行政区コード":"北区","カテゴリリスト":"人権・男女共同参画"},"geometry":{"type":"Point","coordinates":[135.144387,34.727253]}},{"type":"Feature","properties":{"﻿施設ID":"2489","施設名":"長田区ボランティアセンター","郵便番号":"653-8570","住所":"長田区北町3-4-3","方書":"長田区総合庁舎4階","電話番号":"078-574-2408","FAX番号":"078-574-2427","行政区コード":"長田区","カテゴリリスト":"人権・男女共同参画"},"geometry":{"type":"Point","coordinates":[135.150796,34.665785]}},{"type":"Feature","properties":{"﻿施設ID":"2490","施設名":"須磨区ボランティアセンター","郵便番号":"654-8570","住所":"須磨区中島町1-1-1","方書":"須磨区役所内","電話番号":"078-731-8922","FAX番号":"078-733-2533","行政区コード":"須磨区","カテゴリリスト":"人権・男女共同参画"},"geometry":{"type":"Point","coordinates":[135.130231,34.650361]}},{"type":"Feature","properties":{"﻿施設ID":"2491","施設名":"垂水区ボランティアセンター","郵便番号":"655-8570","住所":"垂水区日向1-5-1","方書":"垂水区役所内","電話番号":"078-709-1333","FAX番号":"078-709-1332","行政区コード":"垂水区","カテゴリリスト":"人権・男女共同参画"},"geometry":{"type":"Point","coordinates":[135.056872,34.63028]}},{"type":"Feature","properties":{"﻿施設ID":"2492","施設名":"西区ボランティアセンター","郵便番号":"651-2195","住所":"西区玉津町小山180-3","方書":"西区総合庁舎4階","電話番号":"078-929-0047","FAX番号":"078-924-0084","行政区コード":"西区","カテゴリリスト":"人権・男女共同参画"},"geometry":{"type":"Point","coordinates":[134.981646,34.683358]}},{"type":"Feature","properties":{"﻿施設ID":"2493","施設名":"神戸市社会福祉協議会ボランティア情報センター","郵便番号":"651-0086","住所":"中央区磯上通3-1-32","方書":"こうべ市民福祉交流センター内","電話番号":"078-271-5314","FAX番号":"078-271-5366","行政区コード":"中央区","カテゴリリスト":"人権・男女共同参画"},"geometry":{"type":"Point","coordinates":[135.20178,34.69283]}},{"type":"Feature","properties":{"﻿施設ID":"295","施設名":"垂水勤労市民センター","郵便番号":"655-0893","住所":"垂水区日向1-5-1","方書":"","電話番号":"078-708-8901","FAX番号":"","行政区コード":"垂水区","カテゴリリスト":"生涯学習"},"geometry":{"type":"Point","coordinates":[135.056872,34.63028]}},{"type":"Feature","properties":{"﻿施設ID":"2242","施設名":"健康ライフプラザ","郵便番号":"652-0897","住所":"兵庫区駅南通5-1-2-300","方書":"","電話番号":"078-652-5202","FAX番号":"078-652-5211","行政区コード":"兵庫区","カテゴリリスト":"生涯学習"},"geometry":{"type":"Point","coordinates":[135.16455,34.66736]}},{"type":"Feature","properties":{"﻿施設ID":"2243","施設名":"市民活動総合支援拠点","郵便番号":"651-0076","住所":"中央区吾妻通4-1-6","方書":"","電話番号":"078-230-8511","FAX番号":"","行政区コード":"中央区","カテゴリリスト":"生涯学習"},"geometry":{"type":"Point","coordinates":[135.20453,34.698377]}},{"type":"Feature","properties":{"﻿施設ID":"2252","施設名":"神戸アジア交流プラザ","郵便番号":"653-0835","住所":"長田区細田町7-1-9","方書":"シューズプラザ4階","電話番号":"078-646-7100","FAX番号":"078-646-7200","行政区コード":"長田区","カテゴリリスト":"生涯学習"},"geometry":{"type":"Point","coordinates":[135.144596,34.659205]}},{"type":"Feature","properties":{"﻿施設ID":"2253","施設名":"コミスタこうべ（生涯学習支援センター）","郵便番号":"651-0076","住所":"中央区吾妻通4-1-6","方書":"","電話番号":"078-251-4731","FAX番号":"078-251-4733","行政区コード":"中央区","カテゴリリスト":"生涯学習"},"geometry":{"type":"Point","coordinates":[135.20453,34.698377]}},{"type":"Feature","properties":{"﻿施設ID":"2254","施設名":"大学共同利用施設「ＵＮＩＴＹ」","郵便番号":"651-2103","住所":"西区学園西町1-1-1","方書":"ユニバープラザ2階","電話番号":"078-794-4970","FAX番号":"078-794-4910","行政区コード":"西区","カテゴリリスト":"生涯学習"},"geometry":{"type":"Point","coordinates":[135.057415,34.680982]}},{"type":"Feature","properties":{"﻿施設ID":"2255","施設名":"神戸国際会議場","郵便番号":"650-0046","住所":"中央区港島中町6-9-1","方書":"","電話番号":"078-302-5200","FAX番号":"078-302-6485","行政区コード":"中央区","カテゴリリスト":"生涯学習"},"geometry":{"type":"Point","coordinates":[135.213008,34.666244]}},{"type":"Feature","properties":{"﻿施設ID":"2256","施設名":"神戸国際展示場","郵便番号":"650-0046","住所":"中央区港島中町6-11-1","方書":"","電話番号":"078-302-1020","FAX番号":"078-302-1870","行政区コード":"中央区","カテゴリリスト":"生涯学習"},"geometry":{"type":"Point","coordinates":[135.212627,34.663694]}},{"type":"Feature","properties":{"﻿施設ID":"2257","施設名":"神戸ポートアイランドホール（ワールド記念ホール）","郵便番号":"650-0046","住所":"中央区港島中町6-12-2","方書":"","電話番号":"078-302-8781","FAX番号":"078-303-4006","行政区コード":"中央区","カテゴリリスト":"生涯学習"},"geometry":{"type":"Point","coordinates":[135.209933,34.664022]}},{"type":"Feature","properties":{"﻿施設ID":"2258","施設名":"神戸サンボーホール","郵便番号":"651-0083","住所":"中央区浜辺通5-1-32","方書":"","電話番号":"078-251-3551","FAX番号":"","行政区コード":"中央区","カテゴリリスト":"生涯学習"},"geometry":{"type":"Point","coordinates":[135.199355,34.688661]}},{"type":"Feature","properties":{"﻿施設ID":"2259","施設名":"ポートアイランド市民広場","郵便番号":"650-0046","住所":"中央区港島中町6-9-2","方書":"","電話番号":"078-303-0451","FAX番号":"","行政区コード":"中央区","カテゴリリスト":"生涯学習"},"geometry":{"type":"Point","coordinates":[135.213008,34.666244]}},{"type":"Feature","properties":{"﻿施設ID":"2260","施設名":"サンパル市民ギャラリー","郵便番号":"651-0096","住所":"中央区雲井通5-3-1","方書":"サンパル管理事務所","電話番号":"078-231-1199","FAX番号":"","行政区コード":"中央区","カテゴリリスト":"生涯学習"},"geometry":{"type":"Point","coordinates":[135.197266,34.695549]}},{"type":"Feature","properties":{"﻿施設ID":"2261","施設名":"こうべまちづくり会館ギャラリー＆ホール＆会議室","郵便番号":"650-0022","住所":"中央区元町通4-2-14","方書":"","電話番号":"078-361-4523","FAX番号":"078-361-4546","行政区コード":"中央区","カテゴリリスト":"生涯学習"},"geometry":{"type":"Point","coordinates":[135.182879,34.686117]}},{"type":"Feature","properties":{"﻿施設ID":"2262","施設名":"文書館","郵便番号":"651-0056","住所":"中央区熊内町1-8-21","方書":"","電話番号":"078-232-3437","FAX番号":"078-232-3840","行政区コード":"中央区","カテゴリリスト":"生涯学習"},"geometry":{"type":"Point","coordinates":[135.202316,34.708106]}},{"type":"Feature","properties":{"﻿施設ID":"2263","施設名":"東灘区民センター・うはらホール","郵便番号":"658-0052","住所":"東灘区住吉東町5-1-16","方書":"","電話番号":"078-822-8333","FAX番号":"078-822-8181","行政区コード":"東灘区","カテゴリリスト":"生涯学習"},"geometry":{"type":"Point","coordinates":[135.263182,34.719312]}},{"type":"Feature","properties":{"﻿施設ID":"2264","施設名":"東灘区民センター小ホール","郵便番号":"658-0083","住所":"東灘区魚崎中町4-3-16","方書":"","電話番号":"078-453-0151","FAX番号":"078-451-5840","行政区コード":"東灘区","カテゴリリスト":"生涯学習"},"geometry":{"type":"Point","coordinates":[135.271377,34.713959]}},{"type":"Feature","properties":{"﻿施設ID":"2265","施設名":"六甲道勤労市民センター","郵便番号":"657-0038","住所":"灘区深田町4-1-39","方書":"","電話番号":"078-841-1711","FAX番号":"078-802-9811","行政区コード":"灘区","カテゴリリスト":"生涯学習"},"geometry":{"type":"Point","coordinates":[135.239226,34.714803]}},{"type":"Feature","properties":{"﻿施設ID":"2266","施設名":"灘区民ホール","郵便番号":"657-0832","住所":"灘区岸地通1-1-1","方書":"","電話番号":"078-502-8555","FAX番号":"","行政区コード":"灘区","カテゴリリスト":"生涯学習"},"geometry":{"type":"Point","coordinates":[135.228147,34.713581]}},{"type":"Feature","properties":{"﻿施設ID":"2268","施設名":"葺合文化センター","郵便番号":"651-0068","住所":"中央区旗塚通4-4-1","方書":"","電話番号":"078-241-0414","FAX番号":"078-261-0366","行政区コード":"中央区","カテゴリリスト":"生涯学習"},"geometry":{"type":"Point","coordinates":[135.201924,34.70439]}},{"type":"Feature","properties":{"﻿施設ID":"2269","施設名":"勤労会館","郵便番号":"651-0096","住所":"中央区雲井通5-1-2","方書":"","電話番号":"078-232-1881","FAX番号":"078-232-1876","行政区コード":"中央区","カテゴリリスト":"生涯学習"},"geometry":{"type":"Point","coordinates":[135.197328,34.694896]}},{"type":"Feature","properties":{"﻿施設ID":"2270","施設名":"青少年会館","郵便番号":"651-0096","住所":"中央区雲井通5-1-2","方書":"","電話番号":"078-232-4455","FAX番号":"","行政区コード":"中央区","カテゴリリスト":"生涯学習"},"geometry":{"type":"Point","coordinates":[135.197328,34.694896]}},{"type":"Feature","properties":{"﻿施設ID":"2271","施設名":"生田文化会館","郵便番号":"650-0004","住所":"中央区中山手通6-1-40","方書":"","電話番号":"078-282-0861","FAX番号":"078-361-4115","行政区コード":"中央区","カテゴリリスト":"生涯学習"},"geometry":{"type":"Point","coordinates":[135.181268,34.691133]}},{"type":"Feature","properties":{"﻿施設ID":"2272","施設名":"神戸文化ホール","郵便番号":"650-0017","住所":"中央区楠町4-2-2","方書":"","電話番号":"078-351-3535","FAX番号":"078-351-3121","行政区コード":"中央区","カテゴリリスト":"生涯学習"},"geometry":{"type":"Point","coordinates":[135.172891,34.683825]}},{"type":"Feature","properties":{"﻿施設ID":"2273","施設名":"フィッシュダンス音楽練習場","郵便番号":"650-0042","住所":"中央区波止場町2-3","方書":"","電話番号":"078-327-8984","FAX番号":"","行政区コード":"中央区","カテゴリリスト":"生涯学習"},"geometry":{"type":"Point","coordinates":[135.189609,34.684264]}},{"type":"Feature","properties":{"﻿施設ID":"2274","施設名":"神戸アートビレッジセンター","郵便番号":"652-0811","住所":"兵庫区新開地5-3-14","方書":"","電話番号":"078-512-5500","FAX番号":"078-512-5356","行政区コード":"兵庫区","カテゴリリスト":"生涯学習"},"geometry":{"type":"Point","coordinates":[135.173716,34.676209]}},{"type":"Feature","properties":{"﻿施設ID":"2275","施設名":"北区民センター","郵便番号":"651-1114","住所":"北区鈴蘭台西町1-22-1","方書":"","電話番号":"078-593-1150","FAX番号":"078-593-0014","行政区コード":"北区","カテゴリリスト":"生涯学習"},"geometry":{"type":"Point","coordinates":[135.143959,34.727259]}},{"type":"Feature","properties":{"﻿施設ID":"2276","施設名":"北区民センター（すずらんホール）","郵便番号":"651-1114","住所":"北区鈴蘭台西町1-26-1","方書":"","電話番号":"078-594-2711","FAX番号":"078-594-2711","行政区コード":"北区","カテゴリリスト":"生涯学習"},"geometry":{"type":"Point","coordinates":[135.145034,34.726575]}},{"type":"Feature","properties":{"﻿施設ID":"2277","施設名":"兵庫勤労市民センター","郵便番号":"652-0805","住所":"兵庫区羽坂通4-1-1","方書":"","電話番号":"078-576-0981","FAX番号":"","行政区コード":"兵庫区","カテゴリリスト":"生涯学習"},"geometry":{"type":"Point","coordinates":[135.165116,34.669182]}},{"type":"Feature","properties":{"﻿施設ID":"2278","施設名":"神戸セミナーハウス","郵便番号":"651-1503","住所":"北区道場町生野字ロクゴ318-2","方書":"","電話番号":"078-985-4391","FAX番号":"","行政区コード":"北区","カテゴリリスト":"生涯学習"},"geometry":{"type":"Point","coordinates":[135.243747,34.851444]}},{"type":"Feature","properties":{"﻿施設ID":"2279","施設名":"新長田勤労市民センター","郵便番号":"653-0038","住所":"長田区若松町5-5-1","方書":"","電話番号":"078-643-2431","FAX番号":"","行政区コード":"長田区","カテゴリリスト":"生涯学習"},"geometry":{"type":"Point","coordinates":[135.144344,34.656408]}},{"type":"Feature","properties":{"﻿施設ID":"2280","施設名":"新長田勤労市民センター（別館）ピフレホール","郵便番号":"653-0038","住所":"長田区若松町4-2-15","方書":"","電話番号":"078-621-1120","FAX番号":"","行政区コード":"長田区","カテゴリリスト":"生涯学習"},"geometry":{"type":"Point","coordinates":[135.145713,34.656808]}},{"type":"Feature","properties":{"﻿施設ID":"2281","施設名":"丸山コミュニティ・センター","郵便番号":"653-0874","住所":"長田区西丸山町1-7-5","方書":"","電話番号":"078-642-3447","FAX番号":"","行政区コード":"長田区","カテゴリリスト":"生涯学習"},"geometry":{"type":"Point","coordinates":[135.141071,34.686016]}},{"type":"Feature","properties":{"﻿施設ID":"2282","施設名":"須磨区民センター","郵便番号":"654-0035","住所":"須磨区中島町1-2-3","方書":"","電話番号":"078-735-7641","FAX番号":"078-735-7644","行政区コード":"須磨区","カテゴリリスト":"生涯学習"},"geometry":{"type":"Point","coordinates":[135.129328,34.650914]}},{"type":"Feature","properties":{"﻿施設ID":"2283","施設名":"北須磨文化センター","郵便番号":"654-0154","住所":"須磨区中落合3-1-2","方書":"","電話番号":"078-791-0840","FAX番号":"","行政区コード":"須磨区","カテゴリリスト":"生涯学習"},"geometry":{"type":"Point","coordinates":[135.095303,34.683968]}},{"type":"Feature","properties":{"﻿施設ID":"2284","施設名":"リバティホール","郵便番号":"651-2103","住所":"西区学園西町1-4","方書":"","電話番号":"078-793-6600","FAX番号":"","行政区コード":"西区","カテゴリリスト":"生涯学習"},"geometry":{"type":"Point","coordinates":[135.057426,34.682854]}},{"type":"Feature","properties":{"﻿施設ID":"2285","施設名":"セリオホール","郵便番号":"651-2242","住所":"西区井吹台東町1-1","方書":"","電話番号":"078-992-8888","FAX番号":"078-992-8856","行政区コード":"西区","カテゴリリスト":"生涯学習"},"geometry":{"type":"Point","coordinates":[135.030748,34.700168]}},{"type":"Feature","properties":{"﻿施設ID":"2286","施設名":"プレンティホール","郵便番号":"651-2273","住所":"西区糀台5-2-3","方書":"","電話番号":"078-992-0500","FAX番号":"078-992-0550","行政区コード":"西区","カテゴリリスト":"生涯学習"},"geometry":{"type":"Point","coordinates":[135.019506,34.719351]}},{"type":"Feature","properties":{"﻿施設ID":"2287","施設名":"御影公会堂","郵便番号":"658-0045","住所":"東灘区御影石町4-4-1","方書":"","電話番号":"078-841-2281","FAX番号":"078-841-2282","行政区コード":"東灘区","カテゴリリスト":"生涯学習"},"geometry":{"type":"Point","coordinates":[135.249276,34.716075]}},{"type":"Feature","properties":{"﻿施設ID":"2288","施設名":"住之江公民館","郵便番号":"658-0053","住所":"東灘区住吉宮町2-2-3","方書":"","電話番号":"078-822-1300","FAX番号":"","行政区コード":"東灘区","カテゴリリスト":"生涯学習"},"geometry":{"type":"Point","coordinates":[135.26365,34.713992]}},{"type":"Feature","properties":{"﻿施設ID":"2289","施設名":"葺合公民館","郵便番号":"651-0081","住所":"中央区真砂通2-1-1","方書":"","電話番号":"078-232-4026","FAX番号":"","行政区コード":"中央区","カテゴリリスト":"生涯学習"},"geometry":{"type":"Point","coordinates":[135.204532,34.694983]}},{"type":"Feature","properties":{"﻿施設ID":"2290","施設名":"清風公民館","郵便番号":"650-0017","住所":"中央区楠町8-10-3","方書":"","電話番号":"078-371-3319","FAX番号":"","行政区コード":"中央区","カテゴリリスト":"生涯学習"},"geometry":{"type":"Point","coordinates":[135.174374,34.686491]}},{"type":"Feature","properties":{"﻿施設ID":"2291","施設名":"長田公民館","郵便番号":"653-0004","住所":"長田区四番町4-51","方書":"","電話番号":"078-575-1374","FAX番号":"","行政区コード":"長田区","カテゴリリスト":"生涯学習"},"geometry":{"type":"Point","coordinates":[135.154509,34.66977]}},{"type":"Feature","properties":{"﻿施設ID":"2292","施設名":"南須磨公民館","郵便番号":"654-0038","住所":"須磨区青葉町2-2-3","方書":"","電話番号":"078-735-2770","FAX番号":"","行政区コード":"須磨区","カテゴリリスト":"生涯学習"},"geometry":{"type":"Point","coordinates":[135.133306,34.648808]}},{"type":"Feature","properties":{"﻿施設ID":"2293","施設名":"東垂水公民館","郵便番号":"655-0886","住所":"垂水区東垂水1-1-1","方書":"","電話番号":"078-753-5025","FAX番号":"","行政区コード":"垂水区","カテゴリリスト":"生涯学習"},"geometry":{"type":"Point","coordinates":[135.068515,34.636887]}},{"type":"Feature","properties":{"﻿施設ID":"2294","施設名":"玉津南公民館","郵便番号":"651-2126","住所":"西区玉津町上池314","方書":"","電話番号":"078-914-4300","FAX番号":"","行政区コード":"西区","カテゴリリスト":"生涯学習"},"geometry":{"type":"Point","coordinates":[134.990815,34.660247]}},{"type":"Feature","properties":{"﻿施設ID":"3154","施設名":"神戸市立地域人材支援センター","郵便番号":"653-0042","住所":"神戸市長田区二葉町7-1-18","方書":"","電話番号":"078-646-8128","FAX番号":"078-646-8138","行政区コード":"長田区","カテゴリリスト":"生涯学習"},"geometry":{"type":"Point","coordinates":[135.146263,34.651772]}},{"type":"Feature","properties":{"﻿施設ID":"2494","施設名":"ユースプラザKOBE・EAST","郵便番号":"658-0054","住所":"東灘区御影中町3-2-1","方書":"御影クラッセ4階","電話番号":"078-891-8222","FAX番号":"078-891-8223","行政区コード":"東灘区","カテゴリリスト":"青少年育成"},"geometry":{"type":"Point","coordinates":[135.255142,34.715631]}},{"type":"Feature","properties":{"﻿施設ID":"2495","施設名":"ユースプラザKOBE・WEST","郵便番号":"654-0154","住所":"須磨区中落合2-2-7","方書":"須磨パティオ健康館3階","電話番号":"078-794-6868","FAX番号":"078-794-6868","行政区コード":"須磨区","カテゴリリスト":"青少年育成"},"geometry":{"type":"Point","coordinates":[135.094556,34.678363]}},{"type":"Feature","properties":{"﻿施設ID":"2496","施設名":"ユースステーション垂水","郵便番号":"655-0893","住所":"垂水区日向1-5-1","方書":"レバンテ垂水2番館3階・垂水勤労市民センター内","電話番号":"078-709-7017","FAX番号":"078-709-7017","行政区コード":"垂水区","カテゴリリスト":"青少年育成"},"geometry":{"type":"Point","coordinates":[135.056872,34.63028]}},{"type":"Feature","properties":{"﻿施設ID":"2497","施設名":"ユースステーション西","郵便番号":"651-2273","住所":"西区糀台5-6-1","方書":"西区民センター内","電話番号":"078-997-0868","FAX番号":"078-997-0868","行政区コード":"西区","カテゴリリスト":"青少年育成"},"geometry":{"type":"Point","coordinates":[135.018906,34.718461]}},{"type":"Feature","properties":{"﻿施設ID":"2498","施設名":"パティオホール","郵便番号":"654-0154","住所":"須磨区中落合2-2-7","方書":"須磨パティオ健康館3F","電話番号":"078-794-6868","FAX番号":"078-794-6868","行政区コード":"須磨区","カテゴリリスト":"青少年育成"},"geometry":{"type":"Point","coordinates":[135.094556,34.678363]}},{"type":"Feature","properties":{"﻿施設ID":"2499","施設名":"垂水年金会館","郵便番号":"655-0892","住所":"垂水区平磯1-2-5","方書":"","電話番号":"078-752-4181","FAX番号":"","行政区コード":"垂水区","カテゴリリスト":"青少年育成"},"geometry":{"type":"Point","coordinates":[135.058991,34.628091]}},{"type":"Feature","properties":{"﻿施設ID":"2500","施設名":"水産会館","郵便番号":"655-0892","住所":"垂水区平磯3-125-26","方書":"","電話番号":"078-707-4626","FAX番号":"","行政区コード":"垂水区","カテゴリリスト":"青少年育成"},"geometry":{"type":"Point","coordinates":[135.054494,34.626754]}},{"type":"Feature","properties":{"﻿施設ID":"2501","施設名":"西区民センター","郵便番号":"651-2273","住所":"西区糀台5-6-1","方書":"","電話番号":"078-991-8321","FAX番号":"078-991-8324","行政区コード":"西区","カテゴリリスト":"青少年育成"},"geometry":{"type":"Point","coordinates":[135.018931,34.717779]}},{"type":"Feature","properties":{"﻿施設ID":"2502","施設名":"ユースステーション長田","郵便番号":"653-0038","住所":"長田区若松町5-5-1","方書":"ジョイプラザ3階・新長田勤労市民センター内","電話番号":"078-643-2438","FAX番号":"078-643-2438","行政区コード":"長田区","カテゴリリスト":"青少年育成"},"geometry":{"type":"Point","coordinates":[135.144407,34.656336]}},{"type":"Feature","properties":{"﻿施設ID":"2503","施設名":"青少年会館","郵便番号":"651-0096","住所":"中央区雲井通5-1-2","方書":"神戸市勤労会館５・６階","電話番号":"078-232-4455","FAX番号":"078-242-2161","行政区コード":"中央区","カテゴリリスト":"青少年育成"},"geometry":{"type":"Point","coordinates":[135.1974,34.694902]}}]}