{"type":"FeatureCollection","features":[{"type":"Feature","properties":{"﻿施設ID":"1314","施設名":"こうべ安心サポートセンター「りんりんネット」","郵便番号":"651-0086","住所":"中央区磯上通3-1-32","方書":"こうべ市民福祉交流センター4階","電話番号":"078-271-3740","FAX番号":"","行政区コード":"中央区","カテゴリリスト":"高齢者のための施設"},"geometry":{"type":"Point","coordinates":[135.20178,34.69283]}},{"type":"Feature","properties":{"﻿施設ID":"1315","施設名":"神戸市高年齢者職業相談室","郵便番号":"651-0096","住所":"中央区雲井通5-3-1","方書":"サンパル2階","電話番号":"078-232-8650","FAX番号":"","行政区コード":"中央区","カテゴリリスト":"高齢者のための施設"},"geometry":{"type":"Point","coordinates":[135.197266,34.695549]}},{"type":"Feature","properties":{"﻿施設ID":"1316","施設名":"本山東部あんしんすこやかセンター","郵便番号":"658-0016","住所":"東灘区本山中町4-2-3","方書":"サンコー神戸元山ビル3階","電話番号":"078-451-0054","FAX番号":"078-451-0153","行政区コード":"東灘区","カテゴリリスト":"高齢者のための施設"},"geometry":{"type":"Point","coordinates":[135.280659,34.72488]}},{"type":"Feature","properties":{"﻿施設ID":"1317","施設名":"本庄あんしんすこやかセンター","郵便番号":"658-0014","住所":"東灘区北青木1-1-3","方書":"特別養護老人ホームおおぎの郷1階","電話番号":"078-431-8181","FAX番号":"078-431-2000","行政区コード":"東灘区","カテゴリリスト":"高齢者のための施設"},"geometry":{"type":"Point","coordinates":[135.286561,34.721714]}},{"type":"Feature","properties":{"﻿施設ID":"1318","施設名":"本山南部あんしんすこやかセンター","郵便番号":"658-0084","住所":"東灘区甲南町2-1-20","方書":"コープリビング甲南2階","電話番号":"078-413-2650","FAX番号":"078-413-1085","行政区コード":"東灘区","カテゴリリスト":"高齢者のための施設"},"geometry":{"type":"Point","coordinates":[135.27621,34.722253]}},{"type":"Feature","properties":{"﻿施設ID":"1319","施設名":"本山西部あんしんすこやかセンター","郵便番号":"658-0072","住所":"東灘区岡本2-10-15","方書":"","電話番号":"078-435-1855","FAX番号":"078-435-1880","行政区コード":"東灘区","カテゴリリスト":"高齢者のための施設"},"geometry":{"type":"Point","coordinates":[135.272493,34.727183]}},{"type":"Feature","properties":{"﻿施設ID":"1320","施設名":"魚崎北部あんしんすこやかセンター（魚崎高齢者介護支援センター）","郵便番号":"658-0083","住所":"東灘区魚崎中町4-10-50","方書":"特別養護老人ホーム　サンライフ魚崎1階","電話番号":"078-435-6677","FAX番号":"078-435-6689","行政区コード":"東灘区","カテゴリリスト":"高齢者のための施設"},"geometry":{"type":"Point","coordinates":[135.270324,34.715281]}},{"type":"Feature","properties":{"﻿施設ID":"1321","施設名":"魚崎南部あんしんすこやかセンター","郵便番号":"658-0083","住所":"東灘区魚崎中町4-3-18","方書":"東灘センター2階","電話番号":"078-452-6830","FAX番号":"078-436-2675","行政区コード":"東灘区","カテゴリリスト":"高齢者のための施設"},"geometry":{"type":"Point","coordinates":[135.271596,34.714006]}},{"type":"Feature","properties":{"﻿施設ID":"1322","施設名":"住吉北部・御影北部あんしんすこやかセンター","郵便番号":"658-0051","住所":"東灘区住吉本町3-7-41","方書":"養護老人ホーム　住吉苑内","電話番号":"078-851-1155","FAX番号":"078-851-1157","行政区コード":"東灘区","カテゴリリスト":"高齢者のための施設"},"geometry":{"type":"Point","coordinates":[135.259111,34.723902]}},{"type":"Feature","properties":{"﻿施設ID":"1323","施設名":"住吉南部あんしんすこやかセンター（東灘在宅福祉センター）","郵便番号":"658-0053","住所":"東灘区住吉宮町3-4-17","方書":"東灘在宅福祉センター2階","電話番号":"078-842-3894","FAX番号":"078-842-6115","行政区コード":"東灘区","カテゴリリスト":"高齢者のための施設"},"geometry":{"type":"Point","coordinates":[135.261222,34.716248]}},{"type":"Feature","properties":{"﻿施設ID":"1324","施設名":"御影南部あんしんすこやかセンター","郵便番号":"658-0054","住所":"東灘区御影中町2-3-23-105","方書":"リメノス御影1階","電話番号":"078-854-2180","FAX番号":"078-854-2181","行政区コード":"東灘区","カテゴリリスト":"高齢者のための施設"},"geometry":{"type":"Point","coordinates":[135.255562,34.718342]}},{"type":"Feature","properties":{"﻿施設ID":"1325","施設名":"六甲アイランドあんしんすこやかセンター","郵便番号":"658-0032","住所":"東灘区向洋町中3-2-6","方書":"協同の苑六甲アイランドにじの家1階","電話番号":"078-857-7381","FAX番号":"078-843-5030","行政区コード":"東灘区","カテゴリリスト":"高齢者のための施設"},"geometry":{"type":"Point","coordinates":[135.271474,34.68695]}},{"type":"Feature","properties":{"﻿施設ID":"1326","施設名":"高羽あんしんすこやかセンター","郵便番号":"657-0026","住所":"灘区弓木町5-3-16","方書":"カァサー六甲1階","電話番号":"078-822-2941","FAX番号":"078-822-2947","行政区コード":"灘区","カテゴリリスト":"高齢者のための施設"},"geometry":{"type":"Point","coordinates":[135.242096,34.718725]}},{"type":"Feature","properties":{"﻿施設ID":"1327","施設名":"六甲摩耶あんしんすこやかセンター","郵便番号":"657-0068","住所":"灘区篠原北町4-15-16","方書":"","電話番号":"078-224-5050","FAX番号":"078-881-2225","行政区コード":"灘区","カテゴリリスト":"高齢者のための施設"},"geometry":{"type":"Point","coordinates":[135.22531,34.723678]}},{"type":"Feature","properties":{"﻿施設ID":"1328","施設名":"六甲あんしんすこやかセンター（灘在宅福祉センター）","郵便番号":"657-0041","住所":"灘区琵琶町2-1-27","方書":"灘在宅福祉センター内","電話番号":"078-882-7859","FAX番号":"078-882-0833","行政区コード":"灘区","カテゴリリスト":"高齢者のための施設"},"geometry":{"type":"Point","coordinates":[135.236768,34.711723]}},{"type":"Feature","properties":{"﻿施設ID":"1329","施設名":"大石あんしんすこやかセンター（大石高齢者介護支援センター）","郵便番号":"657-0043","住所":"灘区大石東町1-2-1","方書":"神戸市営　大石東第二住宅　1階","電話番号":"078-821-3838","FAX番号":"078-821-3812","行政区コード":"灘区","カテゴリリスト":"高齢者のための施設"},"geometry":{"type":"Point","coordinates":[135.238367,34.709491]}},{"type":"Feature","properties":{"﻿施設ID":"1330","施設名":"篠原あんしんすこやかセンター","郵便番号":"657-0057","住所":"灘区神ノ木通3-6-18","方書":"","電話番号":"078-871-9015","FAX番号":"078-871-9100","行政区コード":"灘区","カテゴリリスト":"高齢者のための施設"},"geometry":{"type":"Point","coordinates":[135.229663,34.71422]}},{"type":"Feature","properties":{"﻿施設ID":"1331","施設名":"王子あんしんすこやかセンター","郵便番号":"657-0838","住所":"灘区王子町1-2-6","方書":"プリンスマンション2階","電話番号":"078-801-5441","FAX番号":"078-801-1733","行政区コード":"灘区","カテゴリリスト":"高齢者のための施設"},"geometry":{"type":"Point","coordinates":[135.218478,34.709748]}},{"type":"Feature","properties":{"﻿施設ID":"1332","施設名":"西灘あんしんすこやかセンター（灘の浜高齢者介護支援センター）","郵便番号":"657-0855","住所":"灘区摩耶海岸通2-3-9","方書":"特別養護老人ホーム　ハピータウンKOBE内","電話番号":"078-803-3130","FAX番号":"078-803-3629","行政区コード":"灘区","カテゴリリスト":"高齢者のための施設"},"geometry":{"type":"Point","coordinates":[135.220514,34.701105]}},{"type":"Feature","properties":{"﻿施設ID":"1333","施設名":"新神戸あんしんすこやかセンター","郵便番号":"651-0092","住所":"中央区生田町1-2-32","方書":"特別養護老人ホーム　オリンピア内","電話番号":"078-241-3747","FAX番号":"078-241-3745","行政区コード":"中央区","カテゴリリスト":"高齢者のための施設"},"geometry":{"type":"Point","coordinates":[135.196302,34.703712]}},{"type":"Feature","properties":{"﻿施設ID":"1334","施設名":"春日野あんしんすこやかセンター（東部高齢者介護支援センター）","郵便番号":"651-0077","住所":"中央区日暮通5-5-8","方書":"","電話番号":"078-251-8801","FAX番号":"078-251-8813","行政区コード":"中央区","カテゴリリスト":"高齢者のための施設"},"geometry":{"type":"Point","coordinates":[135.203096,34.698524]}},{"type":"Feature","properties":{"﻿施設ID":"1335","施設名":"脇の浜あんしんすこやかセンター（脇の浜高齢者介護支援センター）","郵便番号":"651-0073","住所":"中央区脇浜海岸通3-2-6","方書":"","電話番号":"078-221-1661","FAX番号":"078-221-4800","行政区コード":"中央区","カテゴリリスト":"高齢者のための施設"},"geometry":{"type":"Point","coordinates":[135.207235,34.69536]}},{"type":"Feature","properties":{"﻿施設ID":"1336","施設名":"三宮あんしんすこやかセンター（中央在宅福祉センター）","郵便番号":"651-0086","住所":"中央区磯上通3-1-32","方書":"こうべ市民福祉交流センター6階　中央在宅福祉センター内","電話番号":"078-271-9604","FAX番号":"078-271-5369","行政区コード":"中央区","カテゴリリスト":"高齢者のための施設"},"geometry":{"type":"Point","coordinates":[135.20178,34.69283]}},{"type":"Feature","properties":{"﻿施設ID":"1337","施設名":"元町山手あんしんすこやかセンター","郵便番号":"650-0011","住所":"中央区下山手通7-1-16","方書":"山手さくら苑4階","電話番号":"078-367-3890","FAX番号":"078-367-3891","行政区コード":"中央区","カテゴリリスト":"高齢者のための施設"},"geometry":{"type":"Point","coordinates":[135.178902,34.688116]}},{"type":"Feature","properties":{"﻿施設ID":"1338","施設名":"ハーバーランドあんしんすこやかセンター","郵便番号":"650-0044","住所":"中央区東川崎町6-1-12","方書":"東川崎高齢者ケアセンター真愛内","電話番号":"078-651-7168","FAX番号":"078-651-7169","行政区コード":"中央区","カテゴリリスト":"高齢者のための施設"},"geometry":{"type":"Point","coordinates":[135.179119,34.674971]}},{"type":"Feature","properties":{"﻿施設ID":"1339","施設名":"港島あんしんすこやかセンター","郵便番号":"650-0046","住所":"中央区港島中町5-2","方書":"介護老人福祉施設ぽー愛内","電話番号":"078-940-0091","FAX番号":"078-303-0605","行政区コード":"中央区","カテゴリリスト":"高齢者のための施設"},"geometry":{"type":"Point","coordinates":[135.209297,34.663272]}},{"type":"Feature","properties":{"﻿施設ID":"1340","施設名":"兵庫平野あんしんすこやかセンター","郵便番号":"652-0014","住所":"兵庫区下三条町8-20","方書":"","電話番号":"078-574-4812","FAX番号":"078-574-4813","行政区コード":"兵庫区","カテゴリリスト":"高齢者のための施設"},"geometry":{"type":"Point","coordinates":[135.167425,34.689955]}},{"type":"Feature","properties":{"﻿施設ID":"1341","施設名":"みなとがわあんしんすこやかセンター","郵便番号":"652-0058","住所":"兵庫区菊水町5-4-6","方書":"","電話番号":"078-521-9138","FAX番号":"078-521-9177","行政区コード":"兵庫区","カテゴリリスト":"高齢者のための施設"},"geometry":{"type":"Point","coordinates":[135.160256,34.684964]}},{"type":"Feature","properties":{"﻿施設ID":"1342","施設名":"荒田あんしんすこやかセンター","郵便番号":"652-0032","住所":"兵庫区荒田町1-10-5","方書":"グランドプラザ神戸101","電話番号":"078-511-1900","FAX番号":"078-511-4311","行政区コード":"兵庫区","カテゴリリスト":"高齢者のための施設"},"geometry":{"type":"Point","coordinates":[135.16613,34.685016]}},{"type":"Feature","properties":{"﻿施設ID":"1343","施設名":"新開地あんしんすこやかセンター","郵便番号":"652-0803","住所":"兵庫区大開通1-1-1","方書":"神鉄ビル10階","電話番号":"078-577-1445","FAX番号":"078-577-1441","行政区コード":"兵庫区","カテゴリリスト":"高齢者のための施設"},"geometry":{"type":"Point","coordinates":[135.169411,34.675604]}},{"type":"Feature","properties":{"﻿施設ID":"1344","施設名":"夢野の丘あんしんすこやかセンター（兵庫在宅福祉センター）","郵便番号":"652-0058","住所":"兵庫区菊水町10-40","方書":"兵庫在宅福祉センター内","電話番号":"078-521-1308","FAX番号":"078-521-1433","行政区コード":"兵庫区","カテゴリリスト":"高齢者のための施設"},"geometry":{"type":"Point","coordinates":[135.154284,34.679975]}},{"type":"Feature","properties":{"﻿施設ID":"1345","施設名":"中道あんしんすこやかセンター（中道高齢者介護支援センター）","郵便番号":"652-0801","住所":"兵庫区中道通6-1-33","方書":"中道高齢者介護支援センター1階","電話番号":"078-575-9300","FAX番号":"078-575-7791","行政区コード":"兵庫区","カテゴリリスト":"高齢者のための施設"},"geometry":{"type":"Point","coordinates":[135.16295,34.673615]}},{"type":"Feature","properties":{"﻿施設ID":"1346","施設名":"キャナルタウンあんしんすこやかセンター（キヤナルタウン高齢者介護支援センター）\nすこやかセンター（キャナ\nルタウン高齢者介護支援\nセンター）","郵便番号":"652-0897","住所":"兵庫区駅南通5-1-2","方書":"高齢者総合福祉施設　モーツァルト兵庫駅前\n内","電話番号":"078-681-1515","FAX番号":"078-681-6780","行政区コード":"兵庫区","カテゴリリスト":"高齢者のための施設"},"geometry":{"type":"Point","coordinates":[135.163911,34.667085]}},{"type":"Feature","properties":{"﻿施設ID":"1347","施設名":"浜山あんしんすこやかセンター（浜山高齢者介護支援センター）","郵便番号":"652-0875","住所":"兵庫区浜中町1-16-18","方書":"浜山高齢者介護支援センター内","電話番号":"078-671-8731","FAX番号":"078-671-8732","行政区コード":"兵庫区","カテゴリリスト":"高齢者のための施設"},"geometry":{"type":"Point","coordinates":[135.165834,34.655758]}},{"type":"Feature","properties":{"﻿施設ID":"1348","施設名":"道場あんしんすこやかセンター","郵便番号":"651-1502","住所":"北区道場町塩田字東山岡3080","方書":"特別養護老人ホームやすらぎの里道場内","電話番号":"078-985-6581","FAX番号":"078-985-6580","行政区コード":"北区","カテゴリリスト":"高齢者のための施設"},"geometry":{"type":"Point","coordinates":[135.245649,34.872223]}},{"type":"Feature","properties":{"﻿施設ID":"1349","施設名":"ありのあんしんすこやかセンター","郵便番号":"651-1302","住所":"北区藤原台中町5-1-2","方書":"特別養護老人ホームふじの里内","電話番号":"078-984-5118","FAX番号":"078-984-5119","行政区コード":"北区","カテゴリリスト":"高齢者のための施設"},"geometry":{"type":"Point","coordinates":[135.214854,34.822548]}},{"type":"Feature","properties":{"﻿施設ID":"1350","施設名":"八多淡河あんしんすこやかセンター","郵便番号":"651-1623","住所":"北区淡河町野瀬715","方書":"JA兵庫六甲上淡河支店内","電話番号":"078-950-9165","FAX番号":"078-950-9166","行政区コード":"北区","カテゴリリスト":"高齢者のための施設"},"geometry":{"type":"Point","coordinates":[135.143849,34.818092]}},{"type":"Feature","properties":{"﻿施設ID":"1351","施設名":"有馬あんしんすこやかセンター","郵便番号":"651-1332","住所":"北区唐櫃台2-23-8","方書":"コープこうべからと店　1階","電話番号":"078-983-1611","FAX番号":"078-983-1623","行政区コード":"北区","カテゴリリスト":"高齢者のための施設"},"geometry":{"type":"Point","coordinates":[135.212094,34.791027]}},{"type":"Feature","properties":{"﻿施設ID":"1352","施設名":"谷上あんしんすこやかセンター","郵便番号":"651-1243","住所":"北区山田町下谷上字門口10-3","方書":"北都病院横","電話番号":"078-583-2666","FAX番号":"078-583-9900","行政区コード":"北区","カテゴリリスト":"高齢者のための施設"},"geometry":{"type":"Point","coordinates":[135.155377,34.749877]}},{"type":"Feature","properties":{"﻿施設ID":"1353","施設名":"神戸北町あんしんすこやかセンター","郵便番号":"651-1233","住所":"北区日の峰2-7","方書":"コープデイズ神戸北町3階","電話番号":"078-582-2874","FAX番号":"078-582-3197","行政区コード":"北区","カテゴリリスト":"高齢者のための施設"},"geometry":{"type":"Point","coordinates":[135.143575,34.755666]}},{"type":"Feature","properties":{"﻿施設ID":"1354","施設名":"北鈴蘭台あんしんすこやかセンター","郵便番号":"651-1145","住所":"北区惣山町2-1-9","方書":"JCHO神戸中央病院附属介護老人保健施設1階","電話番号":"078-596-2386","FAX番号":"078-596-2446","行政区コード":"北区","カテゴリリスト":"高齢者のための施設"},"geometry":{"type":"Point","coordinates":[135.15428,34.737197]}},{"type":"Feature","properties":{"﻿施設ID":"1355","施設名":"鈴蘭台あんしんすこやかセンター（北在宅福祉センター）","郵便番号":"651-1114","住所":"北区鈴蘭台西町1-26-2","方書":"北在宅福祉センター内","電話番号":"078-592-9604","FAX番号":"078-592-5170","行政区コード":"北区","カテゴリリスト":"高齢者のための施設"},"geometry":{"type":"Point","coordinates":[135.145312,34.726584]}},{"type":"Feature","properties":{"﻿施設ID":"1356","施設名":"五葉あんしんすこやかセンター","郵便番号":"651-1132","住所":"北区南五葉1-2-28","方書":"サンロイヤル清水201号","電話番号":"078-596-5315","FAX番号":"078-596-5316","行政区コード":"北区","カテゴリリスト":"高齢者のための施設"},"geometry":{"type":"Point","coordinates":[135.134952,34.725242]}},{"type":"Feature","properties":{"﻿施設ID":"1357","施設名":"しあわせの村あんしんすこやかセンター","郵便番号":"651-1102","住所":"北区山田町下谷上字中一里山14-1","方書":"介護老人保健施設リハ・神戸1階","電話番号":"078-743-8208","FAX番号":"078-743-8305","行政区コード":"北区","カテゴリリスト":"高齢者のための施設"},"geometry":{"type":"Point","coordinates":[135.115045,34.705455]}},{"type":"Feature","properties":{"﻿施設ID":"1358","施設名":"丸山あんしんすこやかセンター","郵便番号":"653-0875","住所":"長田区丸山町2-2-13","方書":"","電話番号":"078-612-5530","FAX番号":"078-612-5526","行政区コード":"長田区","カテゴリリスト":"高齢者のための施設"},"geometry":{"type":"Point","coordinates":[135.141293,34.684019]}},{"type":"Feature","properties":{"﻿施設ID":"1359","施設名":"名倉あんしんすこやかセンター","郵便番号":"653-0811","住所":"長田区大塚町5-1-7","方書":"","電話番号":"078-646-0151","FAX番号":"078-646-0181","行政区コード":"長田区","カテゴリリスト":"高齢者のための施設"},"geometry":{"type":"Point","coordinates":[135.147196,34.673198]}},{"type":"Feature","properties":{"﻿施設ID":"1360","施設名":"池田宮川あんしんすこやかセンター","郵便番号":"653-0812","住所":"長田区長田町8-1-9","方書":"","電話番号":"078-631-9690","FAX番号":"078-631-9630","行政区コード":"長田区","カテゴリリスト":"高齢者のための施設"},"geometry":{"type":"Point","coordinates":[135.145601,34.674781]}},{"type":"Feature","properties":{"﻿施設ID":"1361","施設名":"御蔵あんしんすこやかセンター（西部高齢者介護支援センター）","郵便番号":"653-0016","住所":"長田区北町3-3","方書":"高齢者ケアセンターながた1階","電話番号":"078-575-8835","FAX番号":"078-575-8188","行政区コード":"長田区","カテゴリリスト":"高齢者のための施設"},"geometry":{"type":"Point","coordinates":[135.151532,34.66551]}},{"type":"Feature","properties":{"﻿施設ID":"1362","施設名":"西代あんしんすこやかセンター","郵便番号":"653-0853","住所":"長田区庄山町2-1-5","方書":"デイサービスセンターいたやど3階","電話番号":"078-643-4700","FAX番号":"078-611-3345","行政区コード":"長田区","カテゴリリスト":"高齢者のための施設"},"geometry":{"type":"Point","coordinates":[135.136458,34.662593]}},{"type":"Feature","properties":{"﻿施設ID":"1363","施設名":"真野真陽あんしんすこやかセンター（長田在宅福祉センター）","郵便番号":"653-0036","住所":"長田区腕塚町2-1-28","方書":"長田在宅福祉センター内","電話番号":"078-611-2020","FAX番号":"078-611-2016","行政区コード":"長田区","カテゴリリスト":"高齢者のための施設"},"geometry":{"type":"Point","coordinates":[135.14939,34.656571]}},{"type":"Feature","properties":{"﻿施設ID":"1365","施設名":"白川あんしんすこやかセンター（白川高齢者介護支援センター）","郵便番号":"654-0103","住所":"須磨区白川台1-35-3","方書":"神港園サニーライフ白川内","電話番号":"078-793-8075","FAX番号":"078-793-8073","行政区コード":"須磨区","カテゴリリスト":"高齢者のための施設"},"geometry":{"type":"Point","coordinates":[135.095159,34.689618]}},{"type":"Feature","properties":{"﻿施設ID":"1366","施設名":"名谷あんしんすこやかセンター","郵便番号":"654-0151","住所":"須磨区北落合1-4-36","方書":"白川コーポ116","電話番号":"078-797-7988","FAX番号":"078-797-7473","行政区コード":"須磨区","カテゴリリスト":"高齢者のための施設"},"geometry":{"type":"Point","coordinates":[135.094503,34.686401]}},{"type":"Feature","properties":{"﻿施設ID":"1367","施設名":"妙法寺あんしんすこやかセンター","郵便番号":"654-0121","住所":"須磨区妙法寺字辻298","方書":"","電話番号":"078-747-2521","FAX番号":"078-747-2560","行政区コード":"須磨区","カテゴリリスト":"高齢者のための施設"},"geometry":{"type":"Point","coordinates":[135.109224,34.676292]}},{"type":"Feature","properties":{"﻿施設ID":"1368","施設名":"名谷南あんしんすこやかセンター","郵便番号":"654-0142","住所":"須磨区友が丘5-5-191","方書":"きたすま在宅福祉支援センター すこやか友が丘2階","電話番号":"078-795-8181","FAX番号":"078-797-8054","行政区コード":"須磨区","カテゴリリスト":"高齢者のための施設"},"geometry":{"type":"Point","coordinates":[135.089612,34.669625]}},{"type":"Feature","properties":{"﻿施設ID":"1369","施設名":"東須磨あんしんすこやかセンター","郵便番号":"654-0012","住所":"須磨区飛松町5-1-22","方書":"","電話番号":"078-731-6700","FAX番号":"078-731-6715","行政区コード":"須磨区","カテゴリリスト":"高齢者のための施設"},"geometry":{"type":"Point","coordinates":[135.131036,34.66008]}},{"type":"Feature","properties":{"﻿施設ID":"1370","施設名":"離宮あんしんすこやかセンター（離宮高齢者介護支援センター）","郵便番号":"654-0067","住所":"須磨区離宮西町2-2-3","方書":"離宮高齢者介護支援センター1階","電話番号":"078-731-4164","FAX番号":"078-739-5751","行政区コード":"須磨区","カテゴリリスト":"高齢者のための施設"},"geometry":{"type":"Point","coordinates":[135.115885,34.652219]}},{"type":"Feature","properties":{"﻿施設ID":"1371","施設名":"たかとりあんしんすこやかセンター（須磨在宅福祉センター）","郵便番号":"654-0024","住所":"須磨区大田町7-3-15","方書":"須磨在宅福祉センター内","電話番号":"078-731-8165","FAX番号":"078-736-2294","行政区コード":"須磨区","カテゴリリスト":"高齢者のための施設"},"geometry":{"type":"Point","coordinates":[135.131745,34.654788]}},{"type":"Feature","properties":{"﻿施設ID":"1372","施設名":"西須磨あんしんすこやかセンター","郵便番号":"654-0045","住所":"須磨区松風町4-2-26","方書":"特別養護老人ホーム あいハート須磨1階","電話番号":"078-737-0505","FAX番号":"078-737-1165","行政区コード":"須磨区","カテゴリリスト":"高齢者のための施設"},"geometry":{"type":"Point","coordinates":[135.12679,34.648197]}},{"type":"Feature","properties":{"﻿施設ID":"1373","施設名":"桃山台あんしんすこやかセンター","郵便番号":"655-0854","住所":"垂水区桃山台5-1139-3","方書":"特別養護老人ホーム 桃山台ホーム1階","電話番号":"078-751-0706","FAX番号":"078-751-7770","行政区コード":"垂水区","カテゴリリスト":"高齢者のための施設"},"geometry":{"type":"Point","coordinates":[135.085191,34.656982]}},{"type":"Feature","properties":{"﻿施設ID":"1374","施設名":"塩屋あんしんすこやかセンター","郵便番号":"655-0872","住所":"垂水区塩屋町4-16-10","方書":"オーブラン塩屋1階","電話番号":"078-755-2280","FAX番号":"078-755-2281","行政区コード":"垂水区","カテゴリリスト":"高齢者のための施設"},"geometry":{"type":"Point","coordinates":[135.080803,34.639504]}},{"type":"Feature","properties":{"﻿施設ID":"1375","施設名":"東垂水あんしんすこやかセンター","郵便番号":"655-0872","住所":"垂水区塩屋町6-38-8","方書":"特別養護老人ホーム ふるさと1階","電話番号":"078-751-4165","FAX番号":"078-755-0320","行政区コード":"垂水区","カテゴリリスト":"高齢者のための施設"},"geometry":{"type":"Point","coordinates":[135.074006,34.636174]}},{"type":"Feature","properties":{"﻿施設ID":"1376","施設名":"垂水名谷あんしんすこやかセンター","郵便番号":"655-0852","住所":"垂水区名谷町字猿倉273-7","方書":"特別養護老人ホーム　オービーホーム新館1階","電話番号":"078-706-9475","FAX番号":"078-706-9466","行政区コード":"垂水区","カテゴリリスト":"高齢者のための施設"},"geometry":{"type":"Point","coordinates":[135.065398,34.648175]}},{"type":"Feature","properties":{"﻿施設ID":"1377","施設名":"平磯あんしんすこやかセンター（垂水在宅福祉センター）","郵便番号":"655-0892","住所":"垂水区平磯1-2-5","方書":"垂水年金会館2階","電話番号":"078-751-1299","FAX番号":"078-752-2294","行政区コード":"垂水区","カテゴリリスト":"高齢者のための施設"},"geometry":{"type":"Point","coordinates":[135.058991,34.628091]}},{"type":"Feature","properties":{"﻿施設ID":"1378","施設名":"本多聞あんしんすこやかセンター（本多聞高齢者介護支援センター）","郵便番号":"655-0006","住所":"垂水区本多聞7-2-2","方書":"","電話番号":"078-783-5001","FAX番号":"078-786-1465","行政区コード":"垂水区","カテゴリリスト":"高齢者のための施設"},"geometry":{"type":"Point","coordinates":[135.043455,34.651502]}},{"type":"Feature","properties":{"﻿施設ID":"1379","施設名":"舞子台あんしんすこやかセンター","郵便番号":"655-0046","住所":"垂水区舞子台7-3-8","方書":"ハートランド舞子台内","電話番号":"078-787-3303","FAX番号":"078-787-3308","行政区コード":"垂水区","カテゴリリスト":"高齢者のための施設"},"geometry":{"type":"Point","coordinates":[135.037992,34.639561]}},{"type":"Feature","properties":{"﻿施設ID":"1380","施設名":"神陵台あんしんすこやかセンター","郵便番号":"655-0042","住所":"垂水区西脇1-4-9-1","方書":"くつろぎの家エルフ・神陵台内","電話番号":"078-742-8004","FAX番号":"078-784-7272","行政区コード":"垂水区","カテゴリリスト":"高齢者のための施設"},"geometry":{"type":"Point","coordinates":[135.037517,34.654507]}},{"type":"Feature","properties":{"﻿施設ID":"1381","施設名":"ニチイケアセンター舞子","郵便番号":"655-0046","住所":"垂水区舞子台5-1-19","方書":"","電話番号":"078-787-5231","FAX番号":"","行政区コード":"垂水区","カテゴリリスト":"高齢者のための施設"},"geometry":{"type":"Point","coordinates":[135.031215,34.636503]}},{"type":"Feature","properties":{"﻿施設ID":"1382","施設名":"押部あんしんすこやかセンター","郵便番号":"651-2211","住所":"西区押部谷町栄193-4","方書":"","電話番号":"078-998-3020","FAX番号":"078-998-3023","行政区コード":"西区","カテゴリリスト":"高齢者のための施設"},"geometry":{"type":"Point","coordinates":[135.05515,34.75539]}},{"type":"Feature","properties":{"﻿施設ID":"1383","施設名":"西神南あんしんすこやかセンター","郵便番号":"651-2242","住所":"西区井吹台東町1-1-1","方書":"西神南センタービル1階","電話番号":"078-990-4165","FAX番号":"078-990-4166","行政区コード":"西区","カテゴリリスト":"高齢者のための施設"},"geometry":{"type":"Point","coordinates":[135.031727,34.699874]}},{"type":"Feature","properties":{"﻿施設ID":"1384","施設名":"伊川谷あんしんすこやかセンター","郵便番号":"651-2104","住所":"西区伊川谷町長坂800","方書":"特別養護老人ホーム 永栄園1階","電話番号":"078-974-8076","FAX番号":"078-974-8176","行政区コード":"西区","カテゴリリスト":"高齢者のための施設"},"geometry":{"type":"Point","coordinates":[135.033495,34.672166]}},{"type":"Feature","properties":{"﻿施設ID":"1385","施設名":"西神中央あんしんすこやかセンター","郵便番号":"651-2273","住所":"西区糀台5-6-1","方書":"西区民センタービル5階","電話番号":"078-996-2376","FAX番号":"078-996-2351","行政区コード":"西区","カテゴリリスト":"高齢者のための施設"},"geometry":{"type":"Point","coordinates":[135.018906,34.718461]}},{"type":"Feature","properties":{"﻿施設ID":"1386","施設名":"神出あんしんすこやかセンター","郵便番号":"651-2311","住所":"西区神出町東1188-70","方書":"神港園敷地内","電話番号":"078-964-2481","FAX番号":"078-965-1856","行政区コード":"西区","カテゴリリスト":"高齢者のための施設"},"geometry":{"type":"Point","coordinates":[135.018564,34.758031]}},{"type":"Feature","properties":{"﻿施設ID":"1387","施設名":"岩岡あんしんすこやかセンター","郵便番号":"651-2412","住所":"西区竜が岡1-3-3","方書":"","電話番号":"078-969-2775","FAX番号":"078-969-2776","行政区コード":"西区","カテゴリリスト":"高齢者のための施設"},"geometry":{"type":"Point","coordinates":[134.939116,34.709422]}},{"type":"Feature","properties":{"﻿施設ID":"1388","施設名":"平野西神あんしんすこやかセンター（西在宅福祉センター）","郵便番号":"651-2276","住所":"西区春日台5-174-10","方書":"西在宅福祉センター内","電話番号":"078-961-1299","FAX番号":"078-961-2140","行政区コード":"西区","カテゴリリスト":"高齢者のための施設"},"geometry":{"type":"Point","coordinates":[134.988042,34.702231]}},{"type":"Feature","properties":{"﻿施設ID":"1389","施設名":"玉津あんしんすこやかセンター","郵便番号":"651-2131","住所":"西区持子3-3","方書":"持子ビル102","電話番号":"078-926-1813","FAX番号":"078-926-1814","行政区コード":"西区","カテゴリリスト":"高齢者のための施設"},"geometry":{"type":"Point","coordinates":[134.981802,34.673329]}},{"type":"Feature","properties":{"﻿施設ID":"1390","施設名":"神戸市立魚崎中町デイサービス","郵便番号":"658-0083","住所":"東灘区魚崎中町4-3-18","方書":"","電話番号":"078-452-3562","FAX番号":"078-452-3650","行政区コード":"東灘区","カテゴリリスト":"高齢者のための施設"},"geometry":{"type":"Point","coordinates":[135.271596,34.714006]}},{"type":"Feature","properties":{"﻿施設ID":"1391","施設名":"神戸市立住吉南町デイサービスセンター","郵便番号":"658-0041","住所":"東灘区住吉南町4-6-26","方書":"","電話番号":"078-846-7670","FAX番号":"078-846-7680","行政区コード":"東灘区","カテゴリリスト":"高齢者のための施設"},"geometry":{"type":"Point","coordinates":[135.262242,34.710593]}},{"type":"Feature","properties":{"﻿施設ID":"1392","施設名":"神戸市立魚崎高齢者介護支援センター","郵便番号":"658-0083","住所":"東灘区魚崎中町4-10-50","方書":"","電話番号":"078-435-6688","FAX番号":"078-435-6689","行政区コード":"東灘区","カテゴリリスト":"高齢者のための施設"},"geometry":{"type":"Point","coordinates":[135.270324,34.715281]}},{"type":"Feature","properties":{"﻿施設ID":"1393","施設名":"神戸市立東灘在宅福祉センター","郵便番号":"658-0053","住所":"東灘区住吉宮町3-4-17","方書":"","電話番号":"078-842-1294","FAX番号":"078-842-6115","行政区コード":"東灘区","カテゴリリスト":"高齢者のための施設"},"geometry":{"type":"Point","coordinates":[135.261222,34.716248]}},{"type":"Feature","properties":{"﻿施設ID":"1394","施設名":"神戸市立灘在宅福祉センター","郵便番号":"657-0041","住所":"灘区琵琶町2-1-27","方書":"","電話番号":"078-882-1294","FAX番号":"078-882-0833","行政区コード":"灘区","カテゴリリスト":"高齢者のための施設"},"geometry":{"type":"Point","coordinates":[135.236768,34.711723]}},{"type":"Feature","properties":{"﻿施設ID":"1395","施設名":"神戸市立大石高齢者介護支援センター","郵便番号":"657-0043","住所":"灘区大石東町1-2-1","方書":"","電話番号":"078-821-3838","FAX番号":"078-821-3812","行政区コード":"灘区","カテゴリリスト":"高齢者のための施設"},"geometry":{"type":"Point","coordinates":[135.238367,34.709491]}},{"type":"Feature","properties":{"﻿施設ID":"1396","施設名":"神戸市立灘の浜高齢者介護支援センター","郵便番号":"657-0855","住所":"灘区摩耶海岸通2-3-9","方書":"","電話番号":"078-803-3619 ","FAX番号":"078-803-3629","行政区コード":"灘区","カテゴリリスト":"高齢者のための施設"},"geometry":{"type":"Point","coordinates":[135.220514,34.701105]}},{"type":"Feature","properties":{"﻿施設ID":"1397","施設名":"神戸市立ひょうご高齢者デイサービスセンター","郵便番号":"652-0897","住所":"兵庫区駅南通5-1-1","方書":"神戸市立中部在宅障害者福祉センターの3F","電話番号":"078-672-6491","FAX番号":"078-672-6490","行政区コード":"兵庫区","カテゴリリスト":"高齢者のための施設"},"geometry":{"type":"Point","coordinates":[135.16553,34.66804]}},{"type":"Feature","properties":{"﻿施設ID":"1398","施設名":"神戸市立松原デイサービスセンター","郵便番号":"652-0881","住所":"兵庫区松原通4-2-25","方書":"","電話番号":"078-682-0081","FAX番号":"078-682-1130","行政区コード":"兵庫区","カテゴリリスト":"高齢者のための施設"},"geometry":{"type":"Point","coordinates":[135.165789,34.664254]}},{"type":"Feature","properties":{"﻿施設ID":"1399","施設名":"キャナルタウン高齢者介護支援センター ","郵便番号":"652-0897","住所":"兵庫区駅南通5-1-2","方書":"高齢者総合福祉施設モーツァルト兵庫駅前内","電話番号":"078-681-0080  ","FAX番号":"078-681-6780","行政区コード":"兵庫区","カテゴリリスト":"高齢者のための施設"},"geometry":{"type":"Point","coordinates":[135.163911,34.667085]}},{"type":"Feature","properties":{"﻿施設ID":"1400","施設名":"神戸市立浜山高齢者介護支援センター","郵便番号":"652-0875","住所":"兵庫区浜中町1-16-18","方書":"花みさき・花みさきⅡ","電話番号":"078-682-8731","FAX番号":"078-682-8730","行政区コード":"兵庫区","カテゴリリスト":"高齢者のための施設"},"geometry":{"type":"Point","coordinates":[135.165834,34.655758]}},{"type":"Feature","properties":{"﻿施設ID":"1401","施設名":"神戸市立兵庫在宅福祉センター","郵便番号":"652-0058","住所":"兵庫区菊水町10-40","方書":"海光園ミラホーム内","電話番号":"078-521-1294","FAX番号":"078-521-1433","行政区コード":"兵庫区","カテゴリリスト":"高齢者のための施設"},"geometry":{"type":"Point","coordinates":[135.154284,34.679975]}},{"type":"Feature","properties":{"﻿施設ID":"1402","施設名":"神戸市立中道高齢者介護支援センター","郵便番号":"652-0801","住所":"兵庫区中道通6-1-33","方書":"","電話番号":"078-575-9300 ","FAX番号":"078-575-2520","行政区コード":"兵庫区","カテゴリリスト":"高齢者のための施設"},"geometry":{"type":"Point","coordinates":[135.16295,34.673615]}},{"type":"Feature","properties":{"﻿施設ID":"1403","施設名":"神戸市立真野デイサービスセンター","郵便番号":"653-0022","住所":"長田区東尻池町6-3-19","方書":"シルバーハウジング1階","電話番号":"078-685-3341","FAX番号":"078-685-3343","行政区コード":"長田区","カテゴリリスト":"高齢者のための施設"},"geometry":{"type":"Point","coordinates":[135.156812,34.65661]}},{"type":"Feature","properties":{"﻿施設ID":"1404","施設名":"西部高齢者介護支援センター（高齢者ケアセンターながたデイサービス）","郵便番号":"653-0016","住所":"長田区北町3-3","方書":"","電話番号":"078-575-8777","FAX番号":"078-575-8188","行政区コード":"長田区","カテゴリリスト":"高齢者のための施設"},"geometry":{"type":"Point","coordinates":[135.151532,34.66551]}},{"type":"Feature","properties":{"﻿施設ID":"1405","施設名":"神戸市立長田在宅福祉センター","郵便番号":"653-0036","住所":"長田区腕塚町2-1-28","方書":"","電話番号":"078-611-2015","FAX番号":"078-611-2016","行政区コード":"長田区","カテゴリリスト":"高齢者のための施設"},"geometry":{"type":"Point","coordinates":[135.14939,34.656571]}},{"type":"Feature","properties":{"﻿施設ID":"1406","施設名":"神戸市立片山デイサービスセンター","郵便番号":"653-0805","住所":"長田区片山町3-2-11","方書":"","電話番号":"078-646-2681","FAX番号":"078-646-2682","行政区コード":"長田区","カテゴリリスト":"高齢者のための施設"},"geometry":{"type":"Point","coordinates":[135.14927,34.674981]}},{"type":"Feature","properties":{"﻿施設ID":"1407","施設名":"神戸市立離宮高齢者介護支援センター","郵便番号":"654-0067","住所":"須磨区離宮西町2-2-3","方書":"","電話番号":"078-731-4164","FAX番号":"078-739-5751","行政区コード":"須磨区","カテゴリリスト":"高齢者のための施設"},"geometry":{"type":"Point","coordinates":[135.115885,34.652219]}},{"type":"Feature","properties":{"﻿施設ID":"1409","施設名":"神戸市立須磨在宅福祉センター","郵便番号":"654-0024","住所":"須磨区大田町7-3-15","方書":"","電話番号":"078-736-1294","FAX番号":"078-736-2294","行政区コード":"須磨区","カテゴリリスト":"高齢者のための施設"},"geometry":{"type":"Point","coordinates":[135.131745,34.654788]}},{"type":"Feature","properties":{"﻿施設ID":"1411","施設名":"神戸市立名谷町デイサービスセンター","郵便番号":"655-0852","住所":"垂水区名谷町字高曽2300-1","方書":"","電話番号":"078-796-3780","FAX番号":"078-796-3780","行政区コード":"垂水区","カテゴリリスト":"高齢者のための施設"},"geometry":{"type":"Point","coordinates":[135.077499,34.670158]}},{"type":"Feature","properties":{"﻿施設ID":"1412","施設名":"神戸市立本多聞高齢者介護支援センター","郵便番号":"655-0006","住所":"垂水区本多聞7-2-2","方書":"","電話番号":"078-783-5001","FAX番号":"078-786-1465","行政区コード":"垂水区","カテゴリリスト":"高齢者のための施設"},"geometry":{"type":"Point","coordinates":[135.043455,34.651502]}},{"type":"Feature","properties":{"﻿施設ID":"1413","施設名":"神戸市立垂水在宅福祉センター","郵便番号":"655-0892","住所":"垂水区平磯1-2-5","方書":"垂水年金会館2階","電話番号":"078-751-1294","FAX番号":"078-752-2294","行政区コード":"垂水区","カテゴリリスト":"高齢者のための施設"},"geometry":{"type":"Point","coordinates":[135.058991,34.628091]}},{"type":"Feature","properties":{"﻿施設ID":"1414","施設名":"神戸市立北在宅福祉センター","郵便番号":"651-1114","住所":"北区鈴蘭台西町1-26-2","方書":"","電話番号":"078-592-1294","FAX番号":"078-592-5170","行政区コード":"北区","カテゴリリスト":"高齢者のための施設"},"geometry":{"type":"Point","coordinates":[135.145312,34.726584]}},{"type":"Feature","properties":{"﻿施設ID":"1415","施設名":"神戸市立中央在宅福祉センター","郵便番号":"651-0086","住所":"中央区磯上通3-1-32","方書":"こうべ市民福祉交流センター6階","電話番号":"078-271-1294","FAX番号":"078-271-5369","行政区コード":"中央区","カテゴリリスト":"高齢者のための施設"},"geometry":{"type":"Point","coordinates":[135.20178,34.69283]}},{"type":"Feature","properties":{"﻿施設ID":"1416","施設名":"老人健康センター","郵便番号":"651-0077","住所":"中央区日暮通5-5-8","方書":"","電話番号":"078-242-5592","FAX番号":"078-221-6540","行政区コード":"中央区","カテゴリリスト":"高齢者のための施設"},"geometry":{"type":"Point","coordinates":[135.203096,34.698524]}},{"type":"Feature","properties":{"﻿施設ID":"1417","施設名":"神戸市立脇の浜高齢者介護支援センター","郵便番号":"651-0073","住所":"中央区脇浜海岸通3-2-6","方書":"","電話番号":"078-221-5566","FAX番号":"078-221-4800","行政区コード":"中央区","カテゴリリスト":"高齢者のための施設"},"geometry":{"type":"Point","coordinates":[135.207235,34.69536]}},{"type":"Feature","properties":{"﻿施設ID":"1418","施設名":"神戸市立西在宅福祉センター","郵便番号":"651-2276","住所":"西区春日台5-174-10","方書":"","電話番号":"078-961-1294","FAX番号":"078-961-2140","行政区コード":"西区","カテゴリリスト":"高齢者のための施設"},"geometry":{"type":"Point","coordinates":[134.988042,34.702231]}},{"type":"Feature","properties":{"﻿施設ID":"1468","施設名":"社会福祉法人神戸市社会福祉協議会　長田在宅福祉センター","郵便番号":"653-0036","住所":"長田区腕塚町2-1-28","方書":"","電話番号":"078-611-2015","FAX番号":"078-611-2016","行政区コード":"長田区","カテゴリリスト":"高齢者のための施設"},"geometry":{"type":"Point","coordinates":[135.14939,34.656571]}},{"type":"Feature","properties":{"﻿施設ID":"3147","施設名":"新長田あんしんすこやかセンター","郵便番号":"653-0042","住所":"長田区二葉町5丁目1-1-117","方書":"アスタくにづか5番館 １階","電話番号":"078-642-0080","FAX番号":"078-642-0211","行政区コード":"長田区","カテゴリリスト":"高齢者のための施設"},"geometry":{"type":"Point","coordinates":[135.147994,34.652468]}},{"type":"Feature","properties":{"﻿施設ID":"3148","施設名":"学園都市あんしんすこやかセンター","郵便番号":"651-2103","住所":"西区学園西町1-4","方書":"キャンパススクエア東館　1階","電話番号":"078-794-3130","FAX番号":"078-794-3722","行政区コード":"西区","カテゴリリスト":"高齢者のための施設"},"geometry":{"type":"Point","coordinates":[135.057426,34.682857]}},{"type":"Feature","properties":{"﻿施設ID":"3153","施設名":"舞子あんしんすこやかセンター","郵便番号":"655-0046","住所":"垂水区舞子台6-10-1-202","方書":"舞子台久保ビル2階","電話番号":"078-787-5231","FAX番号":"078-787-8752","行政区コード":"垂水区","カテゴリリスト":"高齢者のための施設"},"geometry":{"type":"Point","coordinates":[135.03097,34.636959]}}]}