{"type":"FeatureCollection","features":[{"type":"Feature","properties":{"﻿施設ID":"2599","施設名":"星和台公園","郵便番号":"651-1121","住所":"北区星和台2-18","方書":"","電話番号":"","FAX番号":"","行政区コード":"北区","カテゴリリスト":"公園"},"geometry":{"type":"Point","coordinates":[135.127716,34.718308]}},{"type":"Feature","properties":{"﻿施設ID":"2600","施設名":"福田が辻公園","郵便番号":"651-1221","住所":"北区緑町8-6","方書":"","電話番号":"","FAX番号":"","行政区コード":"北区","カテゴリリスト":"公園"},"geometry":{"type":"Point","coordinates":[135.152575,34.75198]}},{"type":"Feature","properties":{"﻿施設ID":"2601","施設名":"鴨谷公園","郵便番号":"651-1211","住所":"北区小倉台5-6","方書":"","電話番号":"","FAX番号":"","行政区コード":"北区","カテゴリリスト":"公園"},"geometry":{"type":"Point","coordinates":[135.168234,34.749657]}},{"type":"Feature","properties":{"﻿施設ID":"2602","施設名":"鼓ケ滝公園","郵便番号":"651-1401","住所":"北区有馬町","方書":"","電話番号":"","FAX番号":"","行政区コード":"北区","カテゴリリスト":"公園"},"geometry":{"type":"Point","coordinates":[135.245326,34.789629]}},{"type":"Feature","properties":{"﻿施設ID":"2603","施設名":"泉台公園","郵便番号":"651-1141","住所":"北区泉台1-14","方書":"","電話番号":"","FAX番号":"","行政区コード":"北区","カテゴリリスト":"公園"},"geometry":{"type":"Point","coordinates":[135.143225,34.741621]}},{"type":"Feature","properties":{"﻿施設ID":"2604","施設名":"箕谷城跡公園","郵便番号":"651-1232","住所":"北区松が枝町3","方書":"","電話番号":"","FAX番号":"","行政区コード":"北区","カテゴリリスト":"公園"},"geometry":{"type":"Point","coordinates":[135.150579,34.762451]}},{"type":"Feature","properties":{"﻿施設ID":"2605","施設名":"鈴蘭台東町公園","郵便番号":"651-1112","住所":"北区鈴蘭台東町7-13","方書":"","電話番号":"","FAX番号":"","行政区コード":"北区","カテゴリリスト":"公園"},"geometry":{"type":"Point","coordinates":[135.155901,34.724807]}},{"type":"Feature","properties":{"﻿施設ID":"2606","施設名":"君影緑地","郵便番号":"651-1122","住所":"北区君影町5-15","方書":"","電話番号":"","FAX番号":"","行政区コード":"北区","カテゴリリスト":"公園"},"geometry":{"type":"Point","coordinates":[135.141358,34.718295]}},{"type":"Feature","properties":{"﻿施設ID":"2607","施設名":"新鈴蘭台公園","郵便番号":"651-1122","住所":"北区君影町4-11","方書":"","電話番号":"","FAX番号":"","行政区コード":"北区","カテゴリリスト":"公園"},"geometry":{"type":"Point","coordinates":[135.141631,34.716584]}},{"type":"Feature","properties":{"﻿施設ID":"2608","施設名":"足谷東公園","郵便番号":"651-1305","住所":"北区西山1-14","方書":"","電話番号":"","FAX番号":"","行政区コード":"北区","カテゴリリスト":"公園"},"geometry":{"type":"Point","coordinates":[135.218723,34.837275]}},{"type":"Feature","properties":{"﻿施設ID":"2609","施設名":"星和台緑地","郵便番号":"651-1121","住所":"北区星和台1","方書":"","電話番号":"","FAX番号":"","行政区コード":"北区","カテゴリリスト":"公園"},"geometry":{"type":"Point","coordinates":[135.132083,34.718511]}},{"type":"Feature","properties":{"﻿施設ID":"2610","施設名":"二郎片山公園","郵便番号":"651-1306","住所":"北区菖蒲が丘3","方書":"","電話番号":"","FAX番号":"","行政区コード":"北区","カテゴリリスト":"公園"},"geometry":{"type":"Point","coordinates":[135.225579,34.841651]}},{"type":"Feature","properties":{"﻿施設ID":"2611","施設名":"大山公園（北）","郵便番号":"651-1141","住所":"北区泉台4-10","方書":"","電話番号":"","FAX番号":"","行政区コード":"北区","カテゴリリスト":"公園"},"geometry":{"type":"Point","coordinates":[135.139657,34.741824]}},{"type":"Feature","properties":{"﻿施設ID":"2612","施設名":"君影北緑地","郵便番号":"651-1122","住所":"北区君影町6-5","方書":"","電話番号":"","FAX番号":"","行政区コード":"北区","カテゴリリスト":"公園"},"geometry":{"type":"Point","coordinates":[135.141682,34.719875]}},{"type":"Feature","properties":{"﻿施設ID":"2613","施設名":"端宝寺町公園","郵便番号":"651-1401","住所":"北区有馬町字","方書":"","電話番号":"","FAX番号":"","行政区コード":"北区","カテゴリリスト":"公園"},"geometry":{"type":"Point","coordinates":[135.255378,34.795673]}},{"type":"Feature","properties":{"﻿施設ID":"2614","施設名":"生野公園","郵便番号":"651-1503","住所":"北区道場町生野字","方書":"","電話番号":"","FAX番号":"","行政区コード":"北区","カテゴリリスト":"公園"},"geometry":{"type":"Point","coordinates":[135.247643,34.863239]}},{"type":"Feature","properties":{"﻿施設ID":"2615","施設名":"広陵公園","郵便番号":"651-1213","住所":"北区広陵町2","方書":"","電話番号":"","FAX番号":"","行政区コード":"北区","カテゴリリスト":"公園"},"geometry":{"type":"Point","coordinates":[135.159613,34.749079]}},{"type":"Feature","properties":{"﻿施設ID":"2616","施設名":"中里中公園","郵便番号":"651-1103","住所":"北区中里町1","方書":"","電話番号":"","FAX番号":"","行政区コード":"北区","カテゴリリスト":"公園"},"geometry":{"type":"Point","coordinates":[135.156212,34.715962]}},{"type":"Feature","properties":{"﻿施設ID":"2617","施設名":"こややま公園","郵便番号":"651-1202","住所":"北区花山中尾台3-8","方書":"","電話番号":"","FAX番号":"","行政区コード":"北区","カテゴリリスト":"公園"},"geometry":{"type":"Point","coordinates":[135.194256,34.769749]}},{"type":"Feature","properties":{"﻿施設ID":"2618","施設名":"日の峰南公園","郵便番号":"651-1233","住所":"北区日の峰2","方書":"","電話番号":"","FAX番号":"","行政区コード":"北区","カテゴリリスト":"公園"},"geometry":{"type":"Point","coordinates":[135.145767,34.756297]}},{"type":"Feature","properties":{"﻿施設ID":"2619","施設名":"京地中公園","郵便番号":"651-1304","住所":"北区京地2-21","方書":"","電話番号":"","FAX番号":"","行政区コード":"北区","カテゴリリスト":"公園"},"geometry":{"type":"Point","coordinates":[135.212999,34.835462]}},{"type":"Feature","properties":{"﻿施設ID":"2620","施設名":"杉尾台公園","郵便番号":"651-1146","住所":"北区杉尾台2","方書":"","電話番号":"","FAX番号":"","行政区コード":"北区","カテゴリリスト":"公園"},"geometry":{"type":"Point","coordinates":[135.139534,34.736781]}},{"type":"Feature","properties":{"﻿施設ID":"2621","施設名":"籠谷公園","郵便番号":"651-1305","住所":"北区西山2-16","方書":"","電話番号":"","FAX番号":"","行政区コード":"北区","カテゴリリスト":"公園"},"geometry":{"type":"Point","coordinates":[135.222473,34.840088]}},{"type":"Feature","properties":{"﻿施設ID":"2622","施設名":"桂木南公園","郵便番号":"651-1223","住所":"北区桂木3","方書":"","電話番号":"","FAX番号":"","行政区コード":"北区","カテゴリリスト":"公園"},"geometry":{"type":"Point","coordinates":[135.142596,34.748072]}},{"type":"Feature","properties":{"﻿施設ID":"2623","施設名":"北夏堀公園","郵便番号":"651-1141","住所":"北区泉台6-6","方書":"","電話番号":"","FAX番号":"","行政区コード":"北区","カテゴリリスト":"公園"},"geometry":{"type":"Point","coordinates":[135.133048,34.736182]}},{"type":"Feature","properties":{"﻿施設ID":"2624","施設名":"東大池公園","郵便番号":"651-1333","住所":"北区東大池2-3","方書":"","電話番号":"","FAX番号":"","行政区コード":"北区","カテゴリリスト":"公園"},"geometry":{"type":"Point","coordinates":[135.199916,34.780659]}},{"type":"Feature","properties":{"﻿施設ID":"2625","施設名":"ひこはち公園","郵便番号":"651-1202","住所":"北区花山中尾台2","方書":"","電話番号":"","FAX番号":"","行政区コード":"北区","カテゴリリスト":"公園"},"geometry":{"type":"Point","coordinates":[135.194624,34.766455]}},{"type":"Feature","properties":{"﻿施設ID":"2626","施設名":"ひよどり台東公園","郵便番号":"651-1123","住所":"北区ひよどり台4","方書":"","電話番号":"","FAX番号":"","行政区コード":"北区","カテゴリリスト":"公園"},"geometry":{"type":"Point","coordinates":[135.127485,34.697431]}},{"type":"Feature","properties":{"﻿施設ID":"2627","施設名":"鳴子公園","郵便番号":"651-1133","住所":"北区鳴子3-1","方書":"","電話番号":"","FAX番号":"","行政区コード":"北区","カテゴリリスト":"公園"},"geometry":{"type":"Point","coordinates":[135.12718,34.724675]}},{"type":"Feature","properties":{"﻿施設ID":"2628","施設名":"吉原公園","郵便番号":"651-1304","住所":"北区京地4","方書":"","電話番号":"","FAX番号":"","行政区コード":"北区","カテゴリリスト":"公園"},"geometry":{"type":"Point","coordinates":[135.21116,34.83565]}},{"type":"Feature","properties":{"﻿施設ID":"2629","施設名":"若葉台公園","郵便番号":"651-1143","住所":"北区若葉台2-12","方書":"","電話番号":"","FAX番号":"","行政区コード":"北区","カテゴリリスト":"公園"},"geometry":{"type":"Point","coordinates":[135.156384,34.741507]}},{"type":"Feature","properties":{"﻿施設ID":"2630","施設名":"下切公園","郵便番号":"651-1121","住所":"北区星和台2-50","方書":"","電話番号":"","FAX番号":"","行政区コード":"北区","カテゴリリスト":"公園"},"geometry":{"type":"Point","coordinates":[135.130699,34.716304]}},{"type":"Feature","properties":{"﻿施設ID":"2631","施設名":"道場西公園","郵便番号":"651-1505","住所":"北区道場町日下部663","方書":"","電話番号":"","FAX番号":"","行政区コード":"北区","カテゴリリスト":"公園"},"geometry":{"type":"Point","coordinates":[135.228792,34.863143]}},{"type":"Feature","properties":{"﻿施設ID":"2632","施設名":"北山公園","郵便番号":"651-1142","住所":"北区甲栄台2","方書":"","電話番号":"","FAX番号":"","行政区コード":"北区","カテゴリリスト":"公園"},"geometry":{"type":"Point","coordinates":[135.150064,34.741886]}},{"type":"Feature","properties":{"﻿施設ID":"2633","施設名":"中里南公園","郵便番号":"651-1103","住所":"北区中里町2-24","方書":"","電話番号":"","FAX番号":"","行政区コード":"北区","カテゴリリスト":"公園"},"geometry":{"type":"Point","coordinates":[135.153964,34.713065]}},{"type":"Feature","properties":{"﻿施設ID":"2634","施設名":"日の峰北公園","郵便番号":"651-1233","住所":"北区日の峰4","方書":"","電話番号":"","FAX番号":"","行政区コード":"北区","カテゴリリスト":"公園"},"geometry":{"type":"Point","coordinates":[135.144911,34.762083]}},{"type":"Feature","properties":{"﻿施設ID":"2635","施設名":"幸陽台北公園","郵便番号":"651-1203","住所":"北区幸陽町2-2","方書":"","電話番号":"","FAX番号":"","行政区コード":"北区","カテゴリリスト":"公園"},"geometry":{"type":"Point","coordinates":[135.190249,34.767865]}},{"type":"Feature","properties":{"﻿施設ID":"2636","施設名":"北鈴蘭台東公園","郵便番号":"651-1145","住所":"北区惣山町5-12","方書":"","電話番号":"","FAX番号":"","行政区コード":"北区","カテゴリリスト":"公園"},"geometry":{"type":"Point","coordinates":[135.156831,34.73675]}},{"type":"Feature","properties":{"﻿施設ID":"2637","施設名":"唐櫃台南公園","郵便番号":"651-1332","住所":"北区唐櫃台3-29","方書":"","電話番号":"","FAX番号":"","行政区コード":"北区","カテゴリリスト":"公園"},"geometry":{"type":"Point","coordinates":[135.215971,34.787656]}},{"type":"Feature","properties":{"﻿施設ID":"2638","施設名":"上畑公園","郵便番号":"651-1121","住所":"北区星和台7","方書":"","電話番号":"","FAX番号":"","行政区コード":"北区","カテゴリリスト":"公園"},"geometry":{"type":"Point","coordinates":[135.122255,34.724781]}},{"type":"Feature","properties":{"﻿施設ID":"2639","施設名":"白坂公園","郵便番号":"651-1321","住所":"北区有野台4-8","方書":"","電話番号":"","FAX番号":"","行政区コード":"北区","カテゴリリスト":"公園"},"geometry":{"type":"Point","coordinates":[135.227891,34.817115]}},{"type":"Feature","properties":{"﻿施設ID":"2640","施設名":"唐谷公園","郵便番号":"651-1132","住所":"北区南五葉4-3","方書":"","電話番号":"","FAX番号":"","行政区コード":"北区","カテゴリリスト":"公園"},"geometry":{"type":"Point","coordinates":[135.136567,34.719375]}},{"type":"Feature","properties":{"﻿施設ID":"2641","施設名":"北鈴蘭台南公園","郵便番号":"651-1145","住所":"北区惣山町4-20","方書":"","電話番号":"","FAX番号":"","行政区コード":"北区","カテゴリリスト":"公園"},"geometry":{"type":"Point","coordinates":[135.155901,34.733512]}},{"type":"Feature","properties":{"﻿施設ID":"2642","施設名":"峠谷公園","郵便番号":"651-1141","住所":"北区泉台3","方書":"","電話番号":"","FAX番号":"","行政区コード":"北区","カテゴリリスト":"公園"},"geometry":{"type":"Point","coordinates":[135.139765,34.739175]}},{"type":"Feature","properties":{"﻿施設ID":"2643","施設名":"東有野台南公園","郵便番号":"651-1322","住所":"北区東有野台1-26","方書":"","電話番号":"","FAX番号":"","行政区コード":"北区","カテゴリリスト":"公園"},"geometry":{"type":"Point","coordinates":[135.233207,34.808113]}},{"type":"Feature","properties":{"﻿施設ID":"2644","施設名":"崎が谷南公園","郵便番号":"651-1131","住所":"北区北五葉2","方書":"","電話番号":"","FAX番号":"","行政区コード":"北区","カテゴリリスト":"公園"},"geometry":{"type":"Point","coordinates":[135.132222,34.727567]}},{"type":"Feature","properties":{"﻿施設ID":"2645","施設名":"渡り谷公園","郵便番号":"651-1202","住所":"北区花山中尾台3","方書":"","電話番号":"","FAX番号":"","行政区コード":"北区","カテゴリリスト":"公園"},"geometry":{"type":"Point","coordinates":[135.197437,34.768784]}},{"type":"Feature","properties":{"﻿施設ID":"2646","施設名":"東有野台北公園","郵便番号":"651-1322","住所":"北区東有野台2-7","方書":"","電話番号":"","FAX番号":"","行政区コード":"北区","カテゴリリスト":"公園"},"geometry":{"type":"Point","coordinates":[135.233594,34.810302]}},{"type":"Feature","properties":{"﻿施設ID":"2647","施設名":"ひよどり台南公園","郵便番号":"651-1123","住所":"北区ひよどり台1-7","方書":"","電話番号":"","FAX番号":"","行政区コード":"北区","カテゴリリスト":"公園"},"geometry":{"type":"Point","coordinates":[135.122856,34.695482]}},{"type":"Feature","properties":{"﻿施設ID":"2648","施設名":"小谷公園","郵便番号":"651-1334","住所":"北区唐櫃六甲台","方書":"","電話番号":"","FAX番号":"","行政区コード":"北区","カテゴリリスト":"公園"},"geometry":{"type":"Point","coordinates":[135.20837,34.782761]}},{"type":"Feature","properties":{"﻿施設ID":"2649","施設名":"東ヶ辻公園","郵便番号":"651-1321","住所":"北区有野台7-20","方書":"","電話番号":"","FAX番号":"","行政区コード":"北区","カテゴリリスト":"公園"},"geometry":{"type":"Point","coordinates":[135.228937,34.808628]}},{"type":"Feature","properties":{"﻿施設ID":"2650","施設名":"須磨浦公園","郵便番号":"654-0068","住所":"須磨区西須磨","方書":"","電話番号":"","FAX番号":"","行政区コード":"須磨区","カテゴリリスト":"公園"},"geometry":{"type":"Point","coordinates":[135.097976,34.642194]}},{"type":"Feature","properties":{"﻿施設ID":"2651","施設名":"(須磨)離宮公園","郵便番号":"654-0018","住所":"須磨区東須磨1","方書":"","電話番号":"","FAX番号":"","行政区コード":"須磨区","カテゴリリスト":"公園"},"geometry":{"type":"Point","coordinates":[135.116333,34.653465]}},{"type":"Feature","properties":{"﻿施設ID":"2652","施設名":"神戸総合運動公園","郵便番号":"651-2102","住所":"須磨区緑台","方書":"","電話番号":"","FAX番号":"","行政区コード":"西区","カテゴリリスト":"公園"},"geometry":{"type":"Point","coordinates":[135.075922,34.681755]}},{"type":"Feature","properties":{"﻿施設ID":"2653","施設名":"須磨寺公園","郵便番号":"654-0068","住所":"須磨区西須磨1","方書":"","電話番号":"","FAX番号":"","行政区コード":"須磨区","カテゴリリスト":"公園"},"geometry":{"type":"Point","coordinates":[135.108147,34.649917]}},{"type":"Feature","properties":{"﻿施設ID":"2654","施設名":"名谷団地周辺緑地","郵便番号":"654-0162","住所":"須磨区神の谷6","方書":"","電話番号":"","FAX番号":"","行政区コード":"須磨区","カテゴリリスト":"公園"},"geometry":{"type":"Point","coordinates":[135.083401,34.675067]}},{"type":"Feature","properties":{"﻿施設ID":"2655","施設名":"奥須磨公園","郵便番号":"654-0133","住所":"須磨区多井畑小松ケ内","方書":"","電話番号":"","FAX番号":"","行政区コード":"須磨区","カテゴリリスト":"公園"},"geometry":{"type":"Point","coordinates":[135.098941,34.662502]}},{"type":"Feature","properties":{"﻿施設ID":"2656","施設名":"海浜公園","郵便番号":"654-0055","住所":"須磨区須磨浦通1","方書":"","電話番号":"","FAX番号":"","行政区コード":"須磨区","カテゴリリスト":"公園"},"geometry":{"type":"Point","coordinates":[135.127018,34.64352]}},{"type":"Feature","properties":{"﻿施設ID":"2657","施設名":"落合中央公園","郵便番号":"654-0154","住所":"須磨区中落合3","方書":"","電話番号":"","FAX番号":"","行政区コード":"須磨区","カテゴリリスト":"公園"},"geometry":{"type":"Point","coordinates":[135.095055,34.683381]}},{"type":"Feature","properties":{"﻿施設ID":"2658","施設名":"土池公園","郵便番号":"654-0143","住所":"須磨区菅の台6","方書":"","電話番号":"","FAX番号":"","行政区コード":"須磨区","カテゴリリスト":"公園"},"geometry":{"type":"Point","coordinates":[135.082462,34.666517]}},{"type":"Feature","properties":{"﻿施設ID":"2659","施設名":"市の子公園","郵便番号":"654-0161","住所":"須磨区弥栄台2","方書":"","電話番号":"","FAX番号":"","行政区コード":"須磨区","カテゴリリスト":"公園"},"geometry":{"type":"Point","coordinates":[135.076797,34.684199]}},{"type":"Feature","properties":{"﻿施設ID":"2660","施設名":"シティヒル東緑地","郵便番号":"658-0032","住所":"東灘区向洋町中1","方書":"","電話番号":"","FAX番号":"","行政区コード":"東灘区","カテゴリリスト":"公園"},"geometry":{"type":"Point","coordinates":[135.275023,34.692492]}},{"type":"Feature","properties":{"﻿施設ID":"2661","施設名":"シティヒル西緑地","郵便番号":"658-0032","住所":"東灘区向洋町中6","方書":"","電話番号":"","FAX番号":"","行政区コード":"東灘区","カテゴリリスト":"公園"},"geometry":{"type":"Point","coordinates":[135.262953,34.690013]}},{"type":"Feature","properties":{"﻿施設ID":"2662","施設名":"六甲アイランド公園東","郵便番号":"658-0032","住所":"東灘区向洋町中1","方書":"","電話番号":"","FAX番号":"","行政区コード":"東灘区","カテゴリリスト":"公園"},"geometry":{"type":"Point","coordinates":[135.270946,34.693515]}},{"type":"Feature","properties":{"﻿施設ID":"2663","施設名":"六甲アイランド公園西","郵便番号":"658-0032","住所":"東灘区向洋町中5","方書":"","電話番号":"","FAX番号":"","行政区コード":"東灘区","カテゴリリスト":"公園"},"geometry":{"type":"Point","coordinates":[135.266504,34.692862]}},{"type":"Feature","properties":{"﻿施設ID":"2664","施設名":"瀬戸公園","郵便番号":"658-0025","住所":"東灘区魚崎南町1-2-1","方書":"","電話番号":"","FAX番号":"","行政区コード":"東灘区","カテゴリリスト":"公園"},"geometry":{"type":"Point","coordinates":[135.280017,34.712308]}},{"type":"Feature","properties":{"﻿施設ID":"2665","施設名":"石屋川公園","郵便番号":"658-0047","住所":"東灘区御影町西平野","方書":"","電話番号":"","FAX番号":"","行政区コード":"東灘区","カテゴリリスト":"公園"},"geometry":{"type":"Point","coordinates":[135.248651,34.716268]}},{"type":"Feature","properties":{"﻿施設ID":"2666","施設名":"住吉公園","郵便番号":"658-0053","住所":"東灘区住吉宮町3-3","方書":"","電話番号":"","FAX番号":"","行政区コード":"東灘区","カテゴリリスト":"公園"},"geometry":{"type":"Point","coordinates":[135.262223,34.715927]}},{"type":"Feature","properties":{"﻿施設ID":"2667","施設名":"向洋西公園","郵便番号":"658-0032","住所":"東灘区向洋町中町6","方書":"","電話番号":"","FAX番号":"","行政区コード":"東灘区","カテゴリリスト":"公園"},"geometry":{"type":"Point","coordinates":[135.266134,34.687693]}},{"type":"Feature","properties":{"﻿施設ID":"2668","施設名":"向洋東公園","郵便番号":"658-0032","住所":"東灘区向洋町中2","方書":"","電話番号":"","FAX番号":"","行政区コード":"東灘区","カテゴリリスト":"公園"},"geometry":{"type":"Point","coordinates":[135.27263,34.688442]}},{"type":"Feature","properties":{"﻿施設ID":"2669","施設名":"住吉台公園","郵便番号":"658-0062","住所":"東灘区住吉台","方書":"","電話番号":"","FAX番号":"","行政区コード":"東灘区","カテゴリリスト":"公園"},"geometry":{"type":"Point","coordinates":[135.258447,34.733413]}},{"type":"Feature","properties":{"﻿施設ID":"2670","施設名":"本庄中央公園","郵便番号":"658-0027","住所":"東灘区青木4-3","方書":"","電話番号":"","FAX番号":"","行政区コード":"東灘区","カテゴリリスト":"公園"},"geometry":{"type":"Point","coordinates":[135.285934,34.719595]}},{"type":"Feature","properties":{"﻿施設ID":"2671","施設名":"住吉川公園","郵便番号":"658-0026","住所":"東灘区魚崎西町1","方書":"","電話番号":"","FAX番号":"","行政区コード":"東灘区","カテゴリリスト":"公園"},"geometry":{"type":"Point","coordinates":[135.268704,34.709815]}},{"type":"Feature","properties":{"﻿施設ID":"2672","施設名":"小寄公園","郵便番号":"658-0015","住所":"東灘区本山南町4","方書":"","電話番号":"","FAX番号":"","行政区コード":"東灘区","カテゴリリスト":"公園"},"geometry":{"type":"Point","coordinates":[135.280409,34.721624]}},{"type":"Feature","properties":{"﻿施設ID":"2673","施設名":"川井公園","郵便番号":"658-0082","住所":"東灘区魚崎北町2-7","方書":"","電話番号":"","FAX番号":"","行政区コード":"東灘区","カテゴリリスト":"公園"},"geometry":{"type":"Point","coordinates":[135.273918,34.717505]}},{"type":"Feature","properties":{"﻿施設ID":"2674","施設名":"御影公園","郵便番号":"658-0054","住所":"東灘区御影中町5","方書":"","電話番号":"","FAX番号":"","行政区コード":"東灘区","カテゴリリスト":"公園"},"geometry":{"type":"Point","coordinates":[135.254228,34.71501]}},{"type":"Feature","properties":{"﻿施設ID":"2675","施設名":"魚崎浜公園","郵便番号":"658-0024","住所":"東灘区魚崎浜町","方書":"","電話番号":"","FAX番号":"","行政区コード":"東灘区","カテゴリリスト":"公園"},"geometry":{"type":"Point","coordinates":[135.281348,34.706177]}},{"type":"Feature","properties":{"﻿施設ID":"2676","施設名":"深田池公園","郵便番号":"658-0065","住所":"東灘区御影山手1-5","方書":"","電話番号":"","FAX番号":"","行政区コード":"東灘区","カテゴリリスト":"公園"},"geometry":{"type":"Point","coordinates":[135.253458,34.725724]}},{"type":"Feature","properties":{"﻿施設ID":"2677","施設名":"福井池公園","郵便番号":"658-0015","住所":"東灘区本山南町5","方書":"","電話番号":"","FAX番号":"","行政区コード":"東灘区","カテゴリリスト":"公園"},"geometry":{"type":"Point","coordinates":[135.276804,34.720879]}},{"type":"Feature","properties":{"﻿施設ID":"2678","施設名":"御旅公園（東灘）","郵便番号":"658-0041","住所":"東灘区住吉南町1-2","方書":"","電話番号":"","FAX番号":"","行政区コード":"東灘区","カテゴリリスト":"公園"},"geometry":{"type":"Point","coordinates":[135.262792,34.70847]}},{"type":"Feature","properties":{"﻿施設ID":"2679","施設名":"宝島池公園","郵便番号":"658-0013","住所":"東灘区深江北町1-7","方書":"","電話番号":"","FAX番号":"","行政区コード":"東灘区","カテゴリリスト":"公園"},"geometry":{"type":"Point","coordinates":[135.299774,34.726798]}},{"type":"Feature","properties":{"﻿施設ID":"2680","施設名":"中野北公園","郵便番号":"658-0016","住所":"東灘区本山中町2-12","方書":"","電話番号":"","FAX番号":"","行政区コード":"東灘区","カテゴリリスト":"公園"},"geometry":{"type":"Point","coordinates":[135.283965,34.72788]}},{"type":"Feature","properties":{"﻿施設ID":"2681","施設名":"野寄公園","郵便番号":"658-0073","住所":"東灘区西岡本3","方書":"","電話番号":"","FAX番号":"","行政区コード":"東灘区","カテゴリリスト":"公園"},"geometry":{"type":"Point","coordinates":[135.264702,34.725504]}},{"type":"Feature","properties":{"﻿施設ID":"2682","施設名":"中野南公園","郵便番号":"658-0015","住所":"東灘区本山南町7-2","方書":"","電話番号":"","FAX番号":"","行政区コード":"東灘区","カテゴリリスト":"公園"},"geometry":{"type":"Point","coordinates":[135.28573,34.724005]}},{"type":"Feature","properties":{"﻿施設ID":"2683","施設名":"住吉浜公園","郵便番号":"658-0042","住所":"東灘区住吉浜町","方書":"","電話番号":"","FAX番号":"","行政区コード":"東灘区","カテゴリリスト":"公園"},"geometry":{"type":"Point","coordinates":[135.261987,34.706173]}},{"type":"Feature","properties":{"﻿施設ID":"2684","施設名":"森公園","郵便番号":"658-0011","住所":"東灘区森南町2-10","方書":"","電話番号":"","FAX番号":"","行政区コード":"東灘区","カテゴリリスト":"公園"},"geometry":{"type":"Point","coordinates":[135.290902,34.729802]}},{"type":"Feature","properties":{"﻿施設ID":"2685","施設名":"渦森展望台公園","郵便番号":"658-0066","住所":"東灘区渦森台4","方書":"","電話番号":"","FAX番号":"","行政区コード":"東灘区","カテゴリリスト":"公園"},"geometry":{"type":"Point","coordinates":[135.246484,34.742106]}},{"type":"Feature","properties":{"﻿施設ID":"2686","施設名":"岡本公園","郵便番号":"658-0072","住所":"東灘区岡本6-6","方書":"","電話番号":"","FAX番号":"","行政区コード":"東灘区","カテゴリリスト":"公園"},"geometry":{"type":"Point","coordinates":[135.273237,34.732192]}},{"type":"Feature","properties":{"﻿施設ID":"2687","施設名":"鴨子が原公園","郵便番号":"658-0064","住所":"東灘区鴨子が原3","方書":"","電話番号":"","FAX番号":"","行政区コード":"東灘区","カテゴリリスト":"公園"},"geometry":{"type":"Point","coordinates":[135.247031,34.732672]}},{"type":"Feature","properties":{"﻿施設ID":"2688","施設名":"向洋町中3丁目公園","郵便番号":"658-0032","住所":"東灘区向洋町中3","方書":"","電話番号":"","FAX番号":"","行政区コード":"東灘区","カテゴリリスト":"公園"},"geometry":{"type":"Point","coordinates":[135.274052,34.686802]}},{"type":"Feature","properties":{"﻿施設ID":"2689","施設名":"浜公園","郵便番号":"658-0025","住所":"東灘区魚崎南町2-10","方書":"","電話番号":"","FAX番号":"","行政区コード":"東灘区","カテゴリリスト":"公園"},"geometry":{"type":"Point","coordinates":[135.276289,34.711658]}},{"type":"Feature","properties":{"﻿施設ID":"2690","施設名":"栄公園","郵便番号":"658-0021","住所":"東灘区深江本町2-6","方書":"","電話番号":"","FAX番号":"","行政区コード":"東灘区","カテゴリリスト":"公園"},"geometry":{"type":"Point","coordinates":[135.295898,34.723801]}},{"type":"Feature","properties":{"﻿施設ID":"2691","施設名":"中之町公園","郵便番号":"658-0081","住所":"東灘区田中町2-7","方書":"","電話番号":"","FAX番号":"","行政区コード":"東灘区","カテゴリリスト":"公園"},"geometry":{"type":"Point","coordinates":[135.275425,34.724278]}},{"type":"Feature","properties":{"﻿施設ID":"2692","施設名":"内浜公園","郵便番号":"658-0027","住所":"東灘区青木3-4","方書":"","電話番号":"","FAX番号":"","行政区コード":"東灘区","カテゴリリスト":"公園"},"geometry":{"type":"Point","coordinates":[135.282222,34.714758]}},{"type":"Feature","properties":{"﻿施設ID":"2693","施設名":"求女塚東公園","郵便番号":"658-0053","住所":"東灘区住吉宮町1","方書":"","電話番号":"","FAX番号":"","行政区コード":"東灘区","カテゴリリスト":"公園"},"geometry":{"type":"Point","coordinates":[135.264063,34.712898]}},{"type":"Feature","properties":{"﻿施設ID":"2694","施設名":"王子公園","郵便番号":"657-0838","住所":"灘区王子町2","方書":"","電話番号":"","FAX番号":"","行政区コード":"灘区","カテゴリリスト":"公園"},"geometry":{"type":"Point","coordinates":[135.216588,34.711398]}},{"type":"Feature","properties":{"﻿施設ID":"2695","施設名":"五鬼城展望公園","郵便番号":"657-0103","住所":"灘区上野","方書":"","電話番号":"","FAX番号":"","行政区コード":"灘区","カテゴリリスト":"公園"},"geometry":{"type":"Point","coordinates":[135.213321,34.721712]}},{"type":"Feature","properties":{"﻿施設ID":"2696","施設名":"灘丸山公園","郵便番号":"657-0812","住所":"灘区箕岡通1","方書":"","電話番号":"","FAX番号":"","行政区コード":"灘区","カテゴリリスト":"公園"},"geometry":{"type":"Point","coordinates":[135.219426,34.723714]}},{"type":"Feature","properties":{"﻿施設ID":"2697","施設名":"都賀川公園","郵便番号":"657-0059","住所":"灘区篠原南町5","方書":"","電話番号":"","FAX番号":"","行政区コード":"灘区","カテゴリリスト":"公園"},"geometry":{"type":"Point","coordinates":[135.230069,34.711165]}},{"type":"Feature","properties":{"﻿施設ID":"2698","施設名":"大和公園","郵便番号":"657-0032","住所":"灘区中郷町5","方書":"","電話番号":"","FAX番号":"","行政区コード":"灘区","カテゴリリスト":"公園"},"geometry":{"type":"Point","coordinates":[135.243158,34.71613]}},{"type":"Feature","properties":{"﻿施設ID":"2699","施設名":"西灘公園","郵便番号":"657-0844","住所":"灘区都通1","方書":"","電話番号":"","FAX番号":"","行政区コード":"灘区","カテゴリリスト":"公園"},"geometry":{"type":"Point","coordinates":[135.229973,34.706666]}},{"type":"Feature","properties":{"﻿施設ID":"2700","施設名":"岩屋公園","郵便番号":"657-0845","住所":"灘区岩屋中町1-6","方書":"","電話番号":"","FAX番号":"","行政区コード":"灘区","カテゴリリスト":"公園"},"geometry":{"type":"Point","coordinates":[135.223117,34.704823]}},{"type":"Feature","properties":{"﻿施設ID":"2701","施設名":"篠原公園","郵便番号":"657-0066","住所":"灘区篠原中町5-2","方書":"","電話番号":"","FAX番号":"","行政区コード":"灘区","カテゴリリスト":"公園"},"geometry":{"type":"Point","coordinates":[135.226625,34.718379]}},{"type":"Feature","properties":{"﻿施設ID":"2702","施設名":"青谷川公園","郵便番号":"657-0825","住所":"灘区中原通7","方書":"","電話番号":"","FAX番号":"","行政区コード":"灘区","カテゴリリスト":"公園"},"geometry":{"type":"Point","coordinates":[135.218348,34.711513]}},{"type":"Feature","properties":{"﻿施設ID":"2703","施設名":"鶴甲公園","郵便番号":"657-0011","住所":"灘区鶴甲3","方書":"","電話番号":"","FAX番号":"","行政区コード":"灘区","カテゴリリスト":"公園"},"geometry":{"type":"Point","coordinates":[135.23774,34.736664]}},{"type":"Feature","properties":{"﻿施設ID":"2704","施設名":"福住公園","郵便番号":"657-0824","住所":"灘区福住通7","方書":"","電話番号":"","FAX番号":"","行政区コード":"灘区","カテゴリリスト":"公園"},"geometry":{"type":"Point","coordinates":[135.217559,34.712893]}},{"type":"Feature","properties":{"﻿施設ID":"2705","施設名":"寿公園","郵便番号":"657-0025","住所":"灘区高徳町3","方書":"","電話番号":"","FAX番号":"","行政区コード":"灘区","カテゴリリスト":"公園"},"geometry":{"type":"Point","coordinates":[135.242933,34.719772]}},{"type":"Feature","properties":{"﻿施設ID":"2706","施設名":"求女塚西公園","郵便番号":"657-0844","住所":"灘区都通3-1","方書":"","電話番号":"","FAX番号":"","行政区コード":"灘区","カテゴリリスト":"公園"},"geometry":{"type":"Point","coordinates":[135.226539,34.704973]}},{"type":"Feature","properties":{"﻿施設ID":"2707","施設名":"烏帽子公園","郵便番号":"657-0042","住所":"灘区烏帽子町1","方書":"","電話番号":"","FAX番号":"","行政区コード":"灘区","カテゴリリスト":"公園"},"geometry":{"type":"Point","coordinates":[135.238234,34.710375]}},{"type":"Feature","properties":{"﻿施設ID":"2708","施設名":"稗田公園","郵便番号":"657-0833","住所":"灘区大内通5","方書":"","電話番号":"","FAX番号":"","行政区コード":"灘区","カテゴリリスト":"公園"},"geometry":{"type":"Point","coordinates":[135.222881,34.710547]}},{"type":"Feature","properties":{"﻿施設ID":"2709","施設名":"鶴甲南公園","郵便番号":"657-0011","住所":"灘区鶴甲2","方書":"","電話番号":"","FAX番号":"","行政区コード":"灘区","カテゴリリスト":"公園"},"geometry":{"type":"Point","coordinates":[135.238116,34.732928]}},{"type":"Feature","properties":{"﻿施設ID":"2710","施設名":"土山町南公園","郵便番号":"657-0022","住所":"灘区土山町","方書":"","電話番号":"","FAX番号":"","行政区コード":"灘区","カテゴリリスト":"公園"},"geometry":{"type":"Point","coordinates":[135.242461,34.728466]}},{"type":"Feature","properties":{"﻿施設ID":"2712","施設名":"護国神社前公園","郵便番号":"657-0068","住所":"灘区篠原北町4-5","方書":"","電話番号":"","FAX番号":"","行政区コード":"灘区","カテゴリリスト":"公園"},"geometry":{"type":"Point","coordinates":[135.225048,34.72143]}},{"type":"Feature","properties":{"﻿施設ID":"2713","施設名":"成徳公園","郵便番号":"657-0037","住所":"灘区備後町1","方書":"","電話番号":"","FAX番号":"","行政区コード":"灘区","カテゴリリスト":"公園"},"geometry":{"type":"Point","coordinates":[135.242246,34.714736]}},{"type":"Feature","properties":{"﻿施設ID":"2714","施設名":"高羽公園","郵便番号":"657-0023","住所":"灘区高羽町4","方書":"","電話番号":"","FAX番号":"","行政区コード":"灘区","カテゴリリスト":"公園"},"geometry":{"type":"Point","coordinates":[135.238379,34.723013]}},{"type":"Feature","properties":{"﻿施設ID":"2715","施設名":"布引公園","郵便番号":"651-0058","住所":"中央区葺合町山郡","方書":"","電話番号":"","FAX番号":"","行政区コード":"中央区","カテゴリリスト":"公園"},"geometry":{"type":"Point","coordinates":[135.192926,34.708117]}},{"type":"Feature","properties":{"﻿施設ID":"2716","施設名":"大倉山公園","郵便番号":"650-0017","住所":"中央区楠町7","方書":"","電話番号":"","FAX番号":"","行政区コード":"中央区","カテゴリリスト":"公園"},"geometry":{"type":"Point","coordinates":[135.173059,34.686711]}},{"type":"Feature","properties":{"﻿施設ID":"2717","施設名":"諏訪山公園","郵便番号":"650-0003","住所":"中央区山本通5","方書":"","電話番号":"","FAX番号":"","行政区コード":"中央区","カテゴリリスト":"公園"},"geometry":{"type":"Point","coordinates":[135.179944,34.698067]}},{"type":"Feature","properties":{"﻿施設ID":"2718","施設名":"東遊園地","郵便番号":"650-0001","住所":"中央区加納町6","方書":"","電話番号":"","FAX番号":"","行政区コード":"中央区","カテゴリリスト":"公園"},"geometry":{"type":"Point","coordinates":[135.196375,34.687904]}},{"type":"Feature","properties":{"﻿施設ID":"2719","施設名":"生田川公園","郵便番号":"651-0056","住所":"中央区熊内町4","方書":"","電話番号":"","FAX番号":"","行政区コード":"中央区","カテゴリリスト":"公園"},"geometry":{"type":"Point","coordinates":[135.200275,34.700117]}},{"type":"Feature","properties":{"﻿施設ID":"2720","施設名":"磯上公園","郵便番号":"651-0085","住所":"中央区八幡通2","方書":"","電話番号":"","FAX番号":"","行政区コード":"中央区","カテゴリリスト":"公園"},"geometry":{"type":"Point","coordinates":[135.199128,34.691564]}},{"type":"Feature","properties":{"﻿施設ID":"2721","施設名":"相楽園","郵便番号":"650-0004","住所":"中央区中山手通5","方書":"","電話番号":"","FAX番号":"","行政区コード":"中央区","カテゴリリスト":"公園"},"geometry":{"type":"Point","coordinates":[135.181784,34.692602]}},{"type":"Feature","properties":{"﻿施設ID":"2722","施設名":"小野浜公園","郵便番号":"651-0083","住所":"中央区浜辺通1","方書":"","電話番号":"","FAX番号":"","行政区コード":"中央区","カテゴリリスト":"公園"},"geometry":{"type":"Point","coordinates":[135.20348,34.688934]}},{"type":"Feature","properties":{"﻿施設ID":"2723","施設名":"王子南公園","郵便番号":"651-0062","住所":"中央区坂口通1","方書":"","電話番号":"","FAX番号":"","行政区コード":"中央区","カテゴリリスト":"公園"},"geometry":{"type":"Point","coordinates":[135.213311,34.707434]}},{"type":"Feature","properties":{"﻿施設ID":"2724","施設名":"宇治川公園","郵便番号":"650-0004","住所":"中央区中山手通7-18","方書":"","電話番号":"","FAX番号":"","行政区コード":"中央区","カテゴリリスト":"公園"},"geometry":{"type":"Point","coordinates":[135.175379,34.691168]}},{"type":"Feature","properties":{"﻿施設ID":"2725","施設名":"宮本公園","郵便番号":"651-0063","住所":"中央区宮本通3","方書":"","電話番号":"","FAX番号":"","行政区コード":"中央区","カテゴリリスト":"公園"},"geometry":{"type":"Point","coordinates":[135.210634,34.706618]}},{"type":"Feature","properties":{"﻿施設ID":"2726","施設名":"東川崎公園","郵便番号":"650-0044","住所":"中央区東川崎町4","方書":"","電話番号":"","FAX番号":"","行政区コード":"中央区","カテゴリリスト":"公園"},"geometry":{"type":"Point","coordinates":[135.181446,34.67482]}},{"type":"Feature","properties":{"﻿施設ID":"2727","施設名":"花隈公園","郵便番号":"650-0013","住所":"中央区花隈町","方書":"","電話番号":"","FAX番号":"","行政区コード":"中央区","カテゴリリスト":"公園"},"geometry":{"type":"Point","coordinates":[135.182868,34.688015]}},{"type":"Feature","properties":{"﻿施設ID":"2728","施設名":"雲中公園","郵便番号":"651-0056","住所":"中央区熊内町3","方書":"","電話番号":"","FAX番号":"","行政区コード":"中央区","カテゴリリスト":"公園"},"geometry":{"type":"Point","coordinates":[135.19994,34.706131]}},{"type":"Feature","properties":{"﻿施設ID":"2729","施設名":"神若公園","郵便番号":"651-0067","住所":"中央区神若通4","方書":"","電話番号":"","FAX番号":"","行政区コード":"中央区","カテゴリリスト":"公園"},"geometry":{"type":"Point","coordinates":[135.202174,34.70309]}},{"type":"Feature","properties":{"﻿施設ID":"2730","施設名":"野崎公園","郵便番号":"651-0056","住所":"中央区熊内町1","方書":"","電話番号":"","FAX番号":"","行政区コード":"中央区","カテゴリリスト":"公園"},"geometry":{"type":"Point","coordinates":[135.203759,34.707339]}},{"type":"Feature","properties":{"﻿施設ID":"2731","施設名":"春日野公園","郵便番号":"651-0063","住所":"中央区宮本通7","方書":"","電話番号":"","FAX番号":"","行政区コード":"中央区","カテゴリリスト":"公園"},"geometry":{"type":"Point","coordinates":[135.206187,34.706049]}},{"type":"Feature","properties":{"﻿施設ID":"2732","施設名":"御崎公園","郵便番号":"652-0855","住所":"兵庫区御崎町1","方書":"","電話番号":"","FAX番号":"","行政区コード":"兵庫区","カテゴリリスト":"公園"},"geometry":{"type":"Point","coordinates":[135.169698,34.656964]}},{"type":"Feature","properties":{"﻿施設ID":"2733","施設名":"平野展望公園","郵便番号":"652-0002","住所":"兵庫区平野町350-1","方書":"","電話番号":"","FAX番号":"","行政区コード":"兵庫区","カテゴリリスト":"公園"},"geometry":{"type":"Point","coordinates":[135.164645,34.693974]}},{"type":"Feature","properties":{"﻿施設ID":"2734","施設名":"会下山公園","郵便番号":"652-0043","住所":"兵庫区会下山町1","方書":"","電話番号":"","FAX番号":"","行政区コード":"兵庫区","カテゴリリスト":"公園"},"geometry":{"type":"Point","coordinates":[135.157499,34.678023]}},{"type":"Feature","properties":{"﻿施設ID":"2735","施設名":"ひよどり展望公園","郵便番号":"652-0052","住所":"兵庫区鵯越筋","方書":"","電話番号":"","FAX番号":"","行政区コード":"兵庫区","カテゴリリスト":"公園"},"geometry":{"type":"Point","coordinates":[135.15074,34.686987]}},{"type":"Feature","properties":{"﻿施設ID":"2736","施設名":"荒田公園","郵便番号":"652-0032","住所":"兵庫区荒田町2-19","方書":"","電話番号":"","FAX番号":"","行政区コード":"兵庫区","カテゴリリスト":"公園"},"geometry":{"type":"Point","coordinates":[135.166705,34.682223]}},{"type":"Feature","properties":{"﻿施設ID":"2737","施設名":"湊川公園","郵便番号":"652-0032","住所":"兵庫区荒田町1","方書":"","電話番号":"","FAX番号":"","行政区コード":"兵庫区","カテゴリリスト":"公園"},"geometry":{"type":"Point","coordinates":[135.166898,34.679444]}},{"type":"Feature","properties":{"﻿施設ID":"2738","施設名":"菊水公園","郵便番号":"652-0058","住所":"兵庫区菊水町3-1","方書":"","電話番号":"","FAX番号":"","行政区コード":"兵庫区","カテゴリリスト":"公園"},"geometry":{"type":"Point","coordinates":[135.162392,34.686563]}},{"type":"Feature","properties":{"﻿施設ID":"2739","施設名":"遠矢浜公園","郵便番号":"652-0866","住所":"兵庫区遠矢浜町2","方書":"","電話番号":"","FAX番号":"","行政区コード":"兵庫区","カテゴリリスト":"公園"},"geometry":{"type":"Point","coordinates":[135.169709,34.648673]}},{"type":"Feature","properties":{"﻿施設ID":"2740","施設名":"本町公園","郵便番号":"652-0834","住所":"兵庫区本町1","方書":"","電話番号":"","FAX番号":"","行政区コード":"兵庫区","カテゴリリスト":"公園"},"geometry":{"type":"Point","coordinates":[135.174456,34.669261]}},{"type":"Feature","properties":{"﻿施設ID":"2741","施設名":"兵庫駅南公園","郵便番号":"652-0897","住所":"兵庫区駅南通5","方書":"","電話番号":"","FAX番号":"","行政区コード":"兵庫区","カテゴリリスト":"公園"},"geometry":{"type":"Point","coordinates":[135.160584,34.66477]}},{"type":"Feature","properties":{"﻿施設ID":"2742","施設名":"湊町公園","郵便番号":"652-0812","住所":"兵庫区湊町2","方書":"","電話番号":"","FAX番号":"","行政区コード":"兵庫区","カテゴリリスト":"公園"},"geometry":{"type":"Point","coordinates":[135.170835,34.675054]}},{"type":"Feature","properties":{"﻿施設ID":"2743","施設名":"天王川公園","郵便番号":"652-0014","住所":"兵庫区下三条町","方書":"","電話番号":"","FAX番号":"","行政区コード":"兵庫区","カテゴリリスト":"公園"},"geometry":{"type":"Point","coordinates":[135.166227,34.688222]}},{"type":"Feature","properties":{"﻿施設ID":"2744","施設名":"会下山小公園","郵便番号":"652-0043","住所":"兵庫区会下山町2","方書":"","電話番号":"","FAX番号":"","行政区コード":"兵庫区","カテゴリリスト":"公園"},"geometry":{"type":"Point","coordinates":[135.157478,34.678076]}},{"type":"Feature","properties":{"﻿施設ID":"2745","施設名":"夢野台公園","郵便番号":"652-0056","住所":"兵庫区滝山町","方書":"","電話番号":"","FAX番号":"","行政区コード":"兵庫区","カテゴリリスト":"公園"},"geometry":{"type":"Point","coordinates":[135.151233,34.682908]}},{"type":"Feature","properties":{"﻿施設ID":"2746","施設名":"須佐野公園","郵便番号":"652-0881","住所":"兵庫区松原通1丁目","方書":"","電話番号":"","FAX番号":"","行政区コード":"兵庫区","カテゴリリスト":"公園"},"geometry":{"type":"Point","coordinates":[135.170401,34.664746]}},{"type":"Feature","properties":{"﻿施設ID":"2747","施設名":"雪御所公園","郵便番号":"652-0031","住所":"兵庫区雪御所町","方書":"","電話番号":"","FAX番号":"","行政区コード":"兵庫区","カテゴリリスト":"公園"},"geometry":{"type":"Point","coordinates":[135.164811,34.687181]}},{"type":"Feature","properties":{"﻿施設ID":"2748","施設名":"門口公園","郵便番号":"652-0814","住所":"兵庫区門口町","方書":"","電話番号":"","FAX番号":"","行政区コード":"兵庫区","カテゴリリスト":"公園"},"geometry":{"type":"Point","coordinates":[135.170867,34.670607]}},{"type":"Feature","properties":{"﻿施設ID":"2749","施設名":"御旅公園(兵庫）","郵便番号":"652-0803","住所":"兵庫区大開通6","方書":"","電話番号":"","FAX番号":"","行政区コード":"兵庫区","カテゴリリスト":"公園"},"geometry":{"type":"Point","coordinates":[135.164328,34.672363]}},{"type":"Feature","properties":{"﻿施設ID":"2750","施設名":"西代公園","郵便番号":"653-0832","住所":"長田区御船通5","方書":"","電話番号":"","FAX番号":"","行政区コード":"長田区","カテゴリリスト":"公園"},"geometry":{"type":"Point","coordinates":[135.144743,34.664302]}},{"type":"Feature","properties":{"﻿施設ID":"2751","施設名":"観音山公園","郵便番号":"653-0823","住所":"長田区池田経町","方書":"","電話番号":"","FAX番号":"","行政区コード":"長田区","カテゴリリスト":"公園"},"geometry":{"type":"Point","coordinates":[135.144212,34.66732]}},{"type":"Feature","properties":{"﻿施設ID":"2752","施設名":"新湊川公園","郵便番号":"653-0836 ","住所":"長田区神楽町1-5","方書":"","電話番号":"","FAX番号":"","行政区コード":"長田区","カテゴリリスト":"公園"},"geometry":{"type":"Point","coordinates":[135.148847,34.667245]}},{"type":"Feature","properties":{"﻿施設ID":"2753","施設名":"西山公園","郵便番号":"653-0862","住所":"長田区西山町4","方書":"","電話番号":"","FAX番号":"","行政区コード":"長田区","カテゴリリスト":"公園"},"geometry":{"type":"Point","coordinates":[135.142361,34.676153]}},{"type":"Feature","properties":{"﻿施設ID":"2754","施設名":"大丸山公園","郵便番号":"653-0806","住所":"長田区大丸町2-10","方書":"","電話番号":"","FAX番号":"","行政区コード":"長田区","カテゴリリスト":"公園"},"geometry":{"type":"Point","coordinates":[135.149399,34.677048]}},{"type":"Feature","properties":{"﻿施設ID":"2755","施設名":"若松公園","郵便番号":"653-0038","住所":"長田区若松町6-3","方書":"","電話番号":"","FAX番号":"","行政区コード":"長田区","カテゴリリスト":"公園"},"geometry":{"type":"Point","coordinates":[135.143951,34.655577]}},{"type":"Feature","properties":{"﻿施設ID":"2756","施設名":"平和台公園","郵便番号":"653-0855","住所":"長田区長尾町2","方書":"","電話番号":"","FAX番号":"","行政区コード":"長田区","カテゴリリスト":"公園"},"geometry":{"type":"Point","coordinates":[135.132575,34.667918]}},{"type":"Feature","properties":{"﻿施設ID":"2757","施設名":"志里池公園","郵便番号":"653-0025","住所":"長田区真野町","方書":"","電話番号":"","FAX番号":"","行政区コード":"長田区","カテゴリリスト":"公園"},"geometry":{"type":"Point","coordinates":[135.152256,34.660314]}},{"type":"Feature","properties":{"﻿施設ID":"2758","施設名":"水笠公園","郵便番号":"653-0842","住所":"長田区水笠通1","方書":"","電話番号":"","FAX番号":"","行政区コード":"長田区","カテゴリリスト":"公園"},"geometry":{"type":"Point","coordinates":[135.143901,34.660256]}},{"type":"Feature","properties":{"﻿施設ID":"2759","施設名":"一番町公園","郵便番号":"653-0013","住所":"長田区一番町4","方書":"","電話番号":"","FAX番号":"","行政区コード":"長田区","カテゴリリスト":"公園"},"geometry":{"type":"Point","coordinates":[135.155093,34.666749]}},{"type":"Feature","properties":{"﻿施設ID":"2760","施設名":"長楽公園","郵便番号":"653-0051","住所":"長田区野田町5","方書":"","電話番号":"","FAX番号":"","行政区コード":"長田区","カテゴリリスト":"公園"},"geometry":{"type":"Point","coordinates":[135.141122,34.650588]}},{"type":"Feature","properties":{"﻿施設ID":"2761","施設名":"しあわせの森","郵便番号":"651-1102","住所":"北区山田町下谷上字中一里山","方書":"","電話番号":"","FAX番号":"","行政区コード":"北区","カテゴリリスト":"公園"},"geometry":{"type":"Point","coordinates":[135.107288,34.715724]}},{"type":"Feature","properties":{"﻿施設ID":"2762","施設名":"森林植物園","郵便番号":"651-1242","住所":"北区山田町上谷上長尾1-2","方書":"","電話番号":"","FAX番号":"","行政区コード":"北区","カテゴリリスト":"公園"},"geometry":{"type":"Point","coordinates":[135.181035,34.737722]}},{"type":"Feature","properties":{"﻿施設ID":"2763","施設名":"再度公園","郵便番号":"651-1243","住所":"北区山田町下谷上","方書":"","電話番号":"","FAX番号":"","行政区コード":"北区","カテゴリリスト":"公園"},"geometry":{"type":"Point","coordinates":[135.172949,34.721051]}},{"type":"Feature","properties":{"﻿施設ID":"2764","施設名":"神戸青少年公園","郵便番号":"651-1623","住所":"北区淡河町野瀬字","方書":"","電話番号":"","FAX番号":"","行政区コード":"北区","カテゴリリスト":"公園"},"geometry":{"type":"Point","coordinates":[135.144174,34.797629]}},{"type":"Feature","properties":{"﻿施設ID":"2765","施設名":"ひよどりごえ森林公園","郵便番号":"651-1102","住所":"北区山田町下谷上字中一里山","方書":"","電話番号":"","FAX番号":"","行政区コード":"北区","カテゴリリスト":"公園"},"geometry":{"type":"Point","coordinates":[135.130012,34.694873]}},{"type":"Feature","properties":{"﻿施設ID":"2766","施設名":"北神戸田園スポーツ公園","郵便番号":"651-1311","住所":"北区有野町二郎753","方書":"","電話番号":"","FAX番号":"","行政区コード":"北区","カテゴリリスト":"公園"},"geometry":{"type":"Point","coordinates":[135.222229,34.847557]}},{"type":"Feature","properties":{"﻿施設ID":"2767","施設名":"ひよどり台1号周辺緑地","郵便番号":"651-1123","住所":"北区ひよどり台4","方書":"","電話番号":"","FAX番号":"","行政区コード":"北区","カテゴリリスト":"公園"},"geometry":{"type":"Point","coordinates":[135.125206,34.702583]}},{"type":"Feature","properties":{"﻿施設ID":"2768","施設名":"大原山公園","郵便番号":"651-1222","住所":"北区大原2","方書":"","電話番号":"","FAX番号":"","行政区コード":"北区","カテゴリリスト":"公園"},"geometry":{"type":"Point","coordinates":[135.136567,34.745765]}},{"type":"Feature","properties":{"﻿施設ID":"2769","施設名":"岡場公園","郵便番号":"651-1301","住所":"北区藤原台北町1-3","方書":"","電話番号":"","FAX番号":"","行政区コード":"北区","カテゴリリスト":"公園"},"geometry":{"type":"Point","coordinates":[135.222023,34.82395]}},{"type":"Feature","properties":{"﻿施設ID":"2770","施設名":"掖谷公園","郵便番号":"651-1514","住所":"北区鹿の子台南町5-3","方書":"","電話番号":"","FAX番号":"","行政区コード":"北区","カテゴリリスト":"公園"},"geometry":{"type":"Point","coordinates":[135.211798,34.856786]}},{"type":"Feature","properties":{"﻿施設ID":"2771","施設名":"ひよどり台6号周辺緑地","郵便番号":"651-1123","住所":"北区ひよどり台5","方書":"","電話番号":"","FAX番号":"","行政区コード":"北区","カテゴリリスト":"公園"},"geometry":{"type":"Point","coordinates":[135.118532,34.700589]}},{"type":"Feature","properties":{"﻿施設ID":"2772","施設名":"ひよどり台２号周辺緑地","郵便番号":"651-1123","住所":"北区ひよどり台4","方書":"","電話番号":"","FAX番号":"","行政区コード":"北区","カテゴリリスト":"公園"},"geometry":{"type":"Point","coordinates":[135.127083,34.696002]}},{"type":"Feature","properties":{"﻿施設ID":"2773","施設名":"瑞宝寺公園","郵便番号":"651-1401","住所":"北区有馬町","方書":"","電話番号":"","FAX番号":"","行政区コード":"北区","カテゴリリスト":"公園"},"geometry":{"type":"Point","coordinates":[135.255389,34.795638]}},{"type":"Feature","properties":{"﻿施設ID":"2774","施設名":"ひよどり台公園","郵便番号":"651-1123","住所":"北区ひよどり台3-8","方書":"","電話番号":"","FAX番号":"","行政区コード":"北区","カテゴリリスト":"公園"},"geometry":{"type":"Point","coordinates":[135.122234,34.697784]}},{"type":"Feature","properties":{"﻿施設ID":"2775","施設名":"ひよどり台5号周辺緑地","郵便番号":"651-1123","住所":"北区ひよどり台2","方書":"","電話番号":"","FAX番号":"","行政区コード":"北区","カテゴリリスト":"公園"},"geometry":{"type":"Point","coordinates":[135.116494,34.698172]}},{"type":"Feature","properties":{"﻿施設ID":"2776","施設名":"鈴蘭公園","郵便番号":"651-1132","住所":"北区南五葉5-1","方書":"","電話番号":"","FAX番号":"","行政区コード":"北区","カテゴリリスト":"公園"},"geometry":{"type":"Point","coordinates":[135.135462,34.722603]}},{"type":"Feature","properties":{"﻿施設ID":"2777","施設名":"ひよどり台３号周辺緑地","郵便番号":"651-1123","住所":"北区ひよどり台1","方書":"","電話番号":"","FAX番号":"","行政区コード":"北区","カテゴリリスト":"公園"},"geometry":{"type":"Point","coordinates":[135.119948,34.693074]}},{"type":"Feature","properties":{"﻿施設ID":"2778","施設名":"千代ヶ谷公園","郵便番号":"651-1513","住所":"北区鹿の子台北町6-21","方書":"","電話番号":"","FAX番号":"","行政区コード":"北区","カテゴリリスト":"公園"},"geometry":{"type":"Point","coordinates":[135.218214,34.863345]}},{"type":"Feature","properties":{"﻿施設ID":"2779","施設名":"君影台公園","郵便番号":"651-1122","住所":"北区君影町1","方書":"","電話番号":"","FAX番号":"","行政区コード":"北区","カテゴリリスト":"公園"},"geometry":{"type":"Point","coordinates":[135.133274,34.716853]}},{"type":"Feature","properties":{"﻿施設ID":"2780","施設名":"吉尾公園","郵便番号":"651-1302","住所":"北区藤原台中町6-21","方書":"","電話番号":"","FAX番号":"","行政区コード":"北区","カテゴリリスト":"公園"},"geometry":{"type":"Point","coordinates":[135.213869,34.815635]}},{"type":"Feature","properties":{"﻿施設ID":"2781","施設名":"柳谷公園","郵便番号":"651-1303","住所":"北区藤原台南町4-35","方書":"","電話番号":"","FAX番号":"","行政区コード":"北区","カテゴリリスト":"公園"},"geometry":{"type":"Point","coordinates":[135.207399,34.814882]}},{"type":"Feature","properties":{"﻿施設ID":"2782","施設名":"蒲池公園","郵便番号":"651-1302","住所":"北区藤原台中町4-20","方書":"","電話番号":"","FAX番号":"","行政区コード":"北区","カテゴリリスト":"公園"},"geometry":{"type":"Point","coordinates":[135.215778,34.820788]}},{"type":"Feature","properties":{"﻿施設ID":"2783","施設名":"栗ノ木谷公園","郵便番号":"651-1301","住所":"北区藤原台北町5-1","方書":"","電話番号":"","FAX番号":"","行政区コード":"北区","カテゴリリスト":"公園"},"geometry":{"type":"Point","coordinates":[135.221947,34.829261]}},{"type":"Feature","properties":{"﻿施設ID":"2784","施設名":"生野中央公園","郵便番号":"651-1503","住所":"北区道場町生野字","方書":"","電話番号":"","FAX番号":"","行政区コード":"北区","カテゴリリスト":"公園"},"geometry":{"type":"Point","coordinates":[135.247643,34.863239]}},{"type":"Feature","properties":{"﻿施設ID":"2785","施設名":"畑の辻緑道","郵便番号":"651-1233","住所":"北区日の峰3","方書":"","電話番号":"","FAX番号":"","行政区コード":"北区","カテゴリリスト":"公園"},"geometry":{"type":"Point","coordinates":[135.144788,34.75911]}},{"type":"Feature","properties":{"﻿施設ID":"2786","施設名":"ひよどり台4号周辺緑地","郵便番号":"651-1123","住所":"北区ひよどり台2","方書":"","電話番号":"","FAX番号":"","行政区コード":"北区","カテゴリリスト":"公園"},"geometry":{"type":"Point","coordinates":[135.117459,34.694891]}},{"type":"Feature","properties":{"﻿施設ID":"2787","施設名":"淡河町公園","郵便番号":"651-1612","住所":"北区淡河町東畑字","方書":"","電話番号":"","FAX番号":"","行政区コード":"北区","カテゴリリスト":"公園"},"geometry":{"type":"Point","coordinates":[135.130323,34.81582]}},{"type":"Feature","properties":{"﻿施設ID":"2788","施設名":"愛宕山公園","郵便番号":"651-1401","住所":"北区有馬町","方書":"","電話番号":"","FAX番号":"","行政区コード":"北区","カテゴリリスト":"公園"},"geometry":{"type":"Point","coordinates":[135.247815,34.794471]}},{"type":"Feature","properties":{"﻿施設ID":"2789","施設名":"八多町公園（田園コミュニティパーク八多町公園）","郵便番号":"651-1343","住所":"北区八多町附物字下殿関","方書":"","電話番号":"","FAX番号":"","行政区コード":"北区","カテゴリリスト":"公園"},"geometry":{"type":"Point","coordinates":[135.197888,34.821048]}},{"type":"Feature","properties":{"﻿施設ID":"2790","施設名":"南鈴蘭台公園","郵便番号":"651-1121","住所":"北区星和台5","方書":"","電話番号":"","FAX番号":"","行政区コード":"北区","カテゴリリスト":"公園"},"geometry":{"type":"Point","coordinates":[135.119653,34.720314]}},{"type":"Feature","properties":{"﻿施設ID":"2791","施設名":"両畑公園","郵便番号":"651-1131","住所":"北区北五葉7-2","方書":"","電話番号":"","FAX番号":"","行政区コード":"北区","カテゴリリスト":"公園"},"geometry":{"type":"Point","coordinates":[135.138716,34.73146]}},{"type":"Feature","properties":{"﻿施設ID":"2792","施設名":"正利の尾公園","郵便番号":"651-1223","住所":"北区桂木4","方書":"","電話番号":"","FAX番号":"","行政区コード":"北区","カテゴリリスト":"公園"},"geometry":{"type":"Point","coordinates":[135.148578,34.754721]}},{"type":"Feature","properties":{"﻿施設ID":"2793","施設名":"有野公園","郵便番号":"651-1321","住所":"北区有野台3-1","方書":"","電話番号":"","FAX番号":"","行政区コード":"北区","カテゴリリスト":"公園"},"geometry":{"type":"Point","coordinates":[135.228921,34.813935]}},{"type":"Feature","properties":{"﻿施設ID":"2794","施設名":"つくしが丘公園","郵便番号":"651-1212","住所":"北区筑紫が丘3-3","方書":"","電話番号":"","FAX番号":"","行政区コード":"北区","カテゴリリスト":"公園"},"geometry":{"type":"Point","coordinates":[135.164012,34.745412]}},{"type":"Feature","properties":{"﻿施設ID":"2795","施設名":"崎ヶ谷公園","郵便番号":"651-1131","住所":"北区北五葉2","方書":"","電話番号":"","FAX番号":"","行政区コード":"北区","カテゴリリスト":"公園"},"geometry":{"type":"Point","coordinates":[135.131214,34.729181]}},{"type":"Feature","properties":{"﻿施設ID":"2796","施設名":"西泉台公園","郵便番号":"651-1141","住所":"北区泉台5-12","方書":"","電話番号":"","FAX番号":"","行政区コード":"北区","カテゴリリスト":"公園"},"geometry":{"type":"Point","coordinates":[135.13338,34.739349]}},{"type":"Feature","properties":{"﻿施設ID":"2797","施設名":"足谷公園","郵便番号":"651-1304","住所":"北区京地1","方書":"","電話番号":"","FAX番号":"","行政区コード":"北区","カテゴリリスト":"公園"},"geometry":{"type":"Point","coordinates":[135.217026,34.834115]}},{"type":"Feature","properties":{"﻿施設ID":"2798","施設名":"六甲唐櫃台公園","郵便番号":"651-1332","住所":"北区唐櫃台4ー38","方書":"","電話番号":"","FAX番号":"","行政区コード":"北区","カテゴリリスト":"公園"},"geometry":{"type":"Point","coordinates":[135.211205,34.786548]}},{"type":"Feature","properties":{"﻿施設ID":"2799","施設名":"切畑公園","郵便番号":"651-1321","住所":"北区有野台2-10","方書":"","電話番号":"","FAX番号":"","行政区コード":"北区","カテゴリリスト":"公園"},"geometry":{"type":"Point","coordinates":[135.224158,34.812147]}},{"type":"Feature","properties":{"﻿施設ID":"2800","施設名":"松尾公園","郵便番号":"654-0151","住所":"須磨区北落合3-2","方書":"","電話番号":"","FAX番号":"","行政区コード":"須磨区","カテゴリリスト":"公園"},"geometry":{"type":"Point","coordinates":[135.090551,34.686775]}},{"type":"Feature","properties":{"﻿施設ID":"2801","施設名":"名谷公園","郵便番号":"654-0155","住所":"須磨区西落合7-4","方書":"","電話番号":"","FAX番号":"","行政区コード":"須磨区","カテゴリリスト":"公園"},"geometry":{"type":"Point","coordinates":[135.088626,34.683277]}},{"type":"Feature","properties":{"﻿施設ID":"2802","施設名":"椿谷公園","郵便番号":"654-0131","住所":"須磨区横尾6-2","方書":"","電話番号":"","FAX番号":"","行政区コード":"須磨区","カテゴリリスト":"公園"},"geometry":{"type":"Point","coordinates":[135.110105,34.672231]}},{"type":"Feature","properties":{"﻿施設ID":"2803","施設名":"東落合緑地","郵便番号":"654-0153","住所":"須磨区南落合4","方書":"","電話番号":"","FAX番号":"","行政区コード":"須磨区","カテゴリリスト":"公園"},"geometry":{"type":"Point","coordinates":[135.106945,34.677732]}},{"type":"Feature","properties":{"﻿施設ID":"2804","施設名":"妙法寺川公園","郵便番号":"654-0023","住所":"須磨区戎町5","方書":"","電話番号":"","FAX番号":"","行政区コード":"須磨区","カテゴリリスト":"公園"},"geometry":{"type":"Point","coordinates":[135.130441,34.655107]}},{"type":"Feature","properties":{"﻿施設ID":"2805","施設名":"滝が谷公園","郵便番号":"654-0162","住所":"須磨区神の谷3-12","方書":"","電話番号":"","FAX番号":"","行政区コード":"須磨区","カテゴリリスト":"公園"},"geometry":{"type":"Point","coordinates":[135.083336,34.686996]}},{"type":"Feature","properties":{"﻿施設ID":"2806","施設名":"武蔵谷公園","郵便番号":"654-0153","住所":"須磨区南落合3","方書":"","電話番号":"","FAX番号":"","行政区コード":"須磨区","カテゴリリスト":"公園"},"geometry":{"type":"Point","coordinates":[135.101076,34.677467]}},{"type":"Feature","properties":{"﻿施設ID":"2807","施設名":"中落合緑地","郵便番号":"654-0154","住所":"須磨区中落合3","方書":"","電話番号":"","FAX番号":"","行政区コード":"須磨区","カテゴリリスト":"公園"},"geometry":{"type":"Point","coordinates":[135.093185,34.683321]}},{"type":"Feature","properties":{"﻿施設ID":"2808","施設名":"高倉台4号周辺緑地","郵便番号":"654-0081","住所":"須磨区高倉台7","方書":"","電話番号":"","FAX番号":"","行政区コード":"須磨区","カテゴリリスト":"公園"},"geometry":{"type":"Point","coordinates":[135.099059,34.655963]}},{"type":"Feature","properties":{"﻿施設ID":"2809","施設名":"下中島公園","郵便番号":"654-0035","住所":"須磨区中島町1","方書":"","電話番号":"","FAX番号":"","行政区コード":"須磨区","カテゴリリスト":"公園"},"geometry":{"type":"Point","coordinates":[135.130337,34.651821]}},{"type":"Feature","properties":{"﻿施設ID":"2810","施設名":"友が台公園","郵便番号":"654-0143","住所":"須磨区菅の台6-16","方書":"","電話番号":"","FAX番号":"","行政区コード":"須磨区","カテゴリリスト":"公園"},"geometry":{"type":"Point","coordinates":[135.086893,34.667523]}},{"type":"Feature","properties":{"﻿施設ID":"2811","施設名":"高倉台公園","郵便番号":"654-0081","住所":"須磨区高倉台3-6","方書":"","電話番号":"","FAX番号":"","行政区コード":"須磨区","カテゴリリスト":"公園"},"geometry":{"type":"Point","coordinates":[135.105786,34.655186]}},{"type":"Feature","properties":{"﻿施設ID":"2812","施設名":"竜が丘公園","郵便番号":"654-0141","住所":"須磨区竜が台5-19","方書":"","電話番号":"","FAX番号":"","行政区コード":"須磨区","カテゴリリスト":"公園"},"geometry":{"type":"Point","coordinates":[135.089012,34.674176]}},{"type":"Feature","properties":{"﻿施設ID":"2813","施設名":"殿津谷公園","郵便番号":"654-0152","住所":"須磨区東落合2-16","方書":"","電話番号":"","FAX番号":"","行政区コード":"須磨区","カテゴリリスト":"公園"},"geometry":{"type":"Point","coordinates":[135.099759,34.683526]}},{"type":"Feature","properties":{"﻿施設ID":"2814","施設名":"畑ヶ谷公園","郵便番号":"654-0151","住所":"須磨区北落合5","方書":"","電話番号":"","FAX番号":"","行政区コード":"須磨区","カテゴリリスト":"公園"},"geometry":{"type":"Point","coordinates":[135.092845,34.691385]}},{"type":"Feature","properties":{"﻿施設ID":"2815","施設名":"多井畑東緑地","郵便番号":"654-0134","住所":"須磨区多井畑東町","方書":"","電話番号":"","FAX番号":"","行政区コード":"須磨区","カテゴリリスト":"公園"},"geometry":{"type":"Point","coordinates":[135.096833,34.663707]}},{"type":"Feature","properties":{"﻿施設ID":"2816","施設名":"中落合公園","郵便番号":"654-0151","住所":"須磨区北落合3","方書":"","電話番号":"","FAX番号":"","行政区コード":"須磨区","カテゴリリスト":"公園"},"geometry":{"type":"Point","coordinates":[135.090841,34.683458]}},{"type":"Feature","properties":{"﻿施設ID":"2817","施設名":"竜が台緑地","郵便番号":"654-0141","住所":"須磨区竜が台3","方書":"","電話番号":"","FAX番号":"","行政区コード":"須磨区","カテゴリリスト":"公園"},"geometry":{"type":"Point","coordinates":[135.089532,34.67715]}},{"type":"Feature","properties":{"﻿施設ID":"2818","施設名":"高倉台1号周辺緑地","郵便番号":"654-0081","住所":"須磨区高倉台2","方書":"","電話番号":"","FAX番号":"","行政区コード":"須磨区","カテゴリリスト":"公園"},"geometry":{"type":"Point","coordinates":[135.106237,34.658399]}},{"type":"Feature","properties":{"﻿施設ID":"2819","施設名":"天井川公園","郵便番号":"654-0064","住所":"須磨区北町1-1","方書":"","電話番号":"","FAX番号":"","行政区コード":"須磨区","カテゴリリスト":"公園"},"geometry":{"type":"Point","coordinates":[135.127115,34.650756]}},{"type":"Feature","properties":{"﻿施設ID":"2820","施設名":"向山公園","郵便番号":"654-0123","住所":"須磨区清水台","方書":"","電話番号":"","FAX番号":"","行政区コード":"須磨区","カテゴリリスト":"公園"},"geometry":{"type":"Point","coordinates":[135.108662,34.68269]}},{"type":"Feature","properties":{"﻿施設ID":"2821","施設名":"多井畑東公園","郵便番号":"654-0134","住所":"須磨区多井畑東町10","方書":"","電話番号":"","FAX番号":"","行政区コード":"須磨区","カテゴリリスト":"公園"},"geometry":{"type":"Point","coordinates":[135.098791,34.665379]}},{"type":"Feature","properties":{"﻿施設ID":"2822","施設名":"道正台公園","郵便番号":"654-0153","住所":"須磨区南落合1-18","方書":"","電話番号":"","FAX番号":"","行政区コード":"須磨区","カテゴリリスト":"公園"},"geometry":{"type":"Point","coordinates":[135.103716,34.674525]}},{"type":"Feature","properties":{"﻿施設ID":"2823","施設名":"衣掛公園","郵便番号":"654-0047","住所":"須磨区磯馴町1","方書":"","電話番号":"","FAX番号":"","行政区コード":"須磨区","カテゴリリスト":"公園"},"geometry":{"type":"Point","coordinates":[135.131117,34.648236]}},{"type":"Feature","properties":{"﻿施設ID":"2824","施設名":"向坂公園","郵便番号":"654-0103","住所":"須磨区白川台7","方書":"","電話番号":"","FAX番号":"","行政区コード":"須磨区","カテゴリリスト":"公園"},"geometry":{"type":"Point","coordinates":[135.100942,34.696977]}},{"type":"Feature","properties":{"﻿施設ID":"2825","施設名":"白川高尾公園","郵便番号":"654-0102","住所":"須磨区東白川台4-12","方書":"","電話番号":"","FAX番号":"","行政区コード":"須磨区","カテゴリリスト":"公園"},"geometry":{"type":"Point","coordinates":[135.105631,34.694666]}},{"type":"Feature","properties":{"﻿施設ID":"2826","施設名":"北須磨公園","郵便番号":"654-0142","住所":"須磨区友が丘7","方書":"","電話番号":"","FAX番号":"","行政区コード":"須磨区","カテゴリリスト":"公園"},"geometry":{"type":"Point","coordinates":[135.097659,34.669561]}},{"type":"Feature","properties":{"﻿施設ID":"2827","施設名":"城が丘中央公園","郵便番号":"654-0103","住所":"須磨区白川台5","方書":"","電話番号":"","FAX番号":"","行政区コード":"須磨区","カテゴリリスト":"公園"},"geometry":{"type":"Point","coordinates":[135.100073,34.692399]}},{"type":"Feature","properties":{"﻿施設ID":"2828","施設名":"道正川公園","郵便番号":"654-0153","住所":"須磨区南落合1-18-5","方書":"","電話番号":"","FAX番号":"","行政区コード":"須磨区","カテゴリリスト":"公園"},"geometry":{"type":"Point","coordinates":[135.103356,34.675376]}},{"type":"Feature","properties":{"﻿施設ID":"2829","施設名":"細が谷公園","郵便番号":"654-0152","住所":"須磨区東落合3-33","方書":"","電話番号":"","FAX番号":"","行政区コード":"須磨区","カテゴリリスト":"公園"},"geometry":{"type":"Point","coordinates":[135.102313,34.686402]}},{"type":"Feature","properties":{"﻿施設ID":"2830","施設名":"菅の台西公園","郵便番号":"654-0143","住所":"須磨区菅の台7-16","方書":"","電話番号":"","FAX番号":"","行政区コード":"須磨区","カテゴリリスト":"公園"},"geometry":{"type":"Point","coordinates":[135.08008,34.667307]}},{"type":"Feature","properties":{"﻿施設ID":"2831","施設名":"東須磨公園","郵便番号":"654-0031","住所":"須磨区権現町2","方書":"","電話番号":"","FAX番号":"","行政区コード":"須磨区","カテゴリリスト":"公園"},"geometry":{"type":"Point","coordinates":[135.130624,34.656007]}},{"type":"Feature","properties":{"﻿施設ID":"2832","施設名":"高倉台小松公園","郵便番号":"654-0081","住所":"須磨区高倉台6-11","方書":"","電話番号":"","FAX番号":"","行政区コード":"須磨区","カテゴリリスト":"公園"},"geometry":{"type":"Point","coordinates":[135.101961,34.659224]}},{"type":"Feature","properties":{"﻿施設ID":"2833","施設名":"菅の台北公園","郵便番号":"654-0143","住所":"須磨区菅の台4","方書":"","電話番号":"","FAX番号":"","行政区コード":"須磨区","カテゴリリスト":"公園"},"geometry":{"type":"Point","coordinates":[135.084747,34.672204]}},{"type":"Feature","properties":{"﻿施設ID":"2834","施設名":"友が丘西公園","郵便番号":"654-0142","住所":"須磨区友が丘4","方書":"","電話番号":"","FAX番号":"","行政区コード":"須磨区","カテゴリリスト":"公園"},"geometry":{"type":"Point","coordinates":[135.090905,34.66702]}},{"type":"Feature","properties":{"﻿施設ID":"2835","施設名":"名谷南センター公園","郵便番号":"654-0143","住所":"須磨区菅の台3","方書":"","電話番号":"","FAX番号":"","行政区コード":"須磨区","カテゴリリスト":"公園"},"geometry":{"type":"Point","coordinates":[135.087263,34.673245]}},{"type":"Feature","properties":{"﻿施設ID":"2836","施設名":"友が丘中公園","郵便番号":"654-0142","住所":"須磨区友が丘2","方書":"","電話番号":"","FAX番号":"","行政区コード":"須磨区","カテゴリリスト":"公園"},"geometry":{"type":"Point","coordinates":[135.096163,34.667506]}},{"type":"Feature","properties":{"﻿施設ID":"2837","施設名":"野路山公園","郵便番号":"654-0121","住所":"須磨区妙法寺字兀山","方書":"","電話番号":"","FAX番号":"","行政区コード":"須磨区","カテゴリリスト":"公園"},"geometry":{"type":"Point","coordinates":[135.121928,34.676753]}},{"type":"Feature","properties":{"﻿施設ID":"2838","施設名":"菅の台南公園","郵便番号":"654-0143","住所":"須磨区菅の台7","方書":"","電話番号":"","FAX番号":"","行政区コード":"須磨区","カテゴリリスト":"公園"},"geometry":{"type":"Point","coordinates":[135.077333,34.664788]}},{"type":"Feature","properties":{"﻿施設ID":"2839","施設名":"名谷タウンズファーム","郵便番号":"654-0162","住所":"須磨区神の谷","方書":"","電話番号":"","FAX番号":"","行政区コード":"須磨区","カテゴリリスト":"公園"},"geometry":{"type":"Point","coordinates":[135.080922,34.686144]}},{"type":"Feature","properties":{"﻿施設ID":"2840","施設名":"須磨緑が丘公園","郵便番号":"654-0113","住所":"須磨区緑が丘2-4","方書":"","電話番号":"","FAX番号":"","行政区コード":"須磨区","カテゴリリスト":"公園"},"geometry":{"type":"Point","coordinates":[135.119251,34.681005]}},{"type":"Feature","properties":{"﻿施設ID":"2841","施設名":"池の内公園","郵便番号":"654-0121","住所":"須磨区妙法寺字池の内","方書":"","電話番号":"","FAX番号":"","行政区コード":"須磨区","カテゴリリスト":"公園"},"geometry":{"type":"Point","coordinates":[135.119251,34.676139]}},{"type":"Feature","properties":{"﻿施設ID":"2842","施設名":"友が丘南公園","郵便番号":"654-0142","住所":"須磨区友が丘3","方書":"","電話番号":"","FAX番号":"","行政区コード":"須磨区","カテゴリリスト":"公園"},"geometry":{"type":"Point","coordinates":[135.096916,34.665136]}},{"type":"Feature","properties":{"﻿施設ID":"2843","施設名":"横尾中公園","郵便番号":"654-0131","住所":"須磨区横尾8-2","方書":"","電話番号":"","FAX番号":"","行政区コード":"須磨区","カテゴリリスト":"公園"},"geometry":{"type":"Point","coordinates":[135.108243,34.671829]}},{"type":"Feature","properties":{"﻿施設ID":"2844","施設名":"舞子東海浜緑地","郵便番号":"655-0036","住所":"垂水区海岸通","方書":"","電話番号":"","FAX番号":"","行政区コード":"垂水区","カテゴリリスト":"公園"},"geometry":{"type":"Point","coordinates":[135.042207,34.628211]}},{"type":"Feature","properties":{"﻿施設ID":"2845","施設名":"垂水健康公園","郵便番号":"655-0852","住所":"垂水区名谷町","方書":"","電話番号":"","FAX番号":"","行政区コード":"垂水区","カテゴリリスト":"公園"},"geometry":{"type":"Point","coordinates":[135.064045,34.660287]}},{"type":"Feature","properties":{"﻿施設ID":"2846","施設名":"五色山北小公園","郵便番号":"655-0035","住所":"垂水区五色山町5-1804-24","方書":"","電話番号":"","FAX番号":"","行政区コード":"垂水区","カテゴリリスト":"公園"},"geometry":{"type":"Point","coordinates":[135.042658,34.63263]}},{"type":"Feature","properties":{"﻿施設ID":"2847","施設名":"学が丘緑地","郵便番号":"655-0004","住所":"垂水区学が丘6-1","方書":"","電話番号":"","FAX番号":"","行政区コード":"垂水区","カテゴリリスト":"公園"},"geometry":{"type":"Point","coordinates":[135.061026,34.661434]}},{"type":"Feature","properties":{"﻿施設ID":"2848","施設名":"五色塚公園","郵便番号":"655-0035","住所":"垂水区五色山4-1","方書":"","電話番号":"","FAX番号":"","行政区コード":"垂水区","カテゴリリスト":"公園"},"geometry":{"type":"Point","coordinates":[135.045887,34.629818]}},{"type":"Feature","properties":{"﻿施設ID":"2849","施設名":"東谷公園","郵便番号":"655-0043","住所":"垂水区南多聞台4 ","方書":"","電話番号":"","FAX番号":"","行政区コード":"垂水区","カテゴリリスト":"公園"},"geometry":{"type":"Point","coordinates":[135.032701,34.651912]}},{"type":"Feature","properties":{"﻿施設ID":"2850","施設名":"南多聞公園","郵便番号":"655-0041","住所":"垂水区神陵台6-1","方書":"","電話番号":"","FAX番号":"","行政区コード":"垂水区","カテゴリリスト":"公園"},"geometry":{"type":"Point","coordinates":[135.037862,34.658628]}},{"type":"Feature","properties":{"﻿施設ID":"2851","施設名":"多聞台東公園","郵便番号":"655-0007","住所":"垂水区多聞台1","方書":"","電話番号":"","FAX番号":"","行政区コード":"垂水区","カテゴリリスト":"公園"},"geometry":{"type":"Point","coordinates":[135.045712,34.660948]}},{"type":"Feature","properties":{"﻿施設ID":"2852","施設名":"苔谷公園","郵便番号":"655-0046","住所":"垂水区舞子台町2","方書":"","電話番号":"","FAX番号":"","行政区コード":"垂水区","カテゴリリスト":"公園"},"geometry":{"type":"Point","coordinates":[135.035829,34.636452]}},{"type":"Feature","properties":{"﻿施設ID":"2853","施設名":"矢元台公園","郵便番号":"655-0049","住所":"垂水区狩口台2-7","方書":"","電話番号":"","FAX番号":"","行政区コード":"垂水区","カテゴリリスト":"公園"},"geometry":{"type":"Point","coordinates":[135.025889,34.649564]}},{"type":"Feature","properties":{"﻿施設ID":"2854","施設名":"学が丘南公園","郵便番号":"655-0004","住所":"垂水区学が丘1-2","方書":"","電話番号":"","FAX番号":"","行政区コード":"垂水区","カテゴリリスト":"公園"},"geometry":{"type":"Point","coordinates":[135.050192,34.649493]}},{"type":"Feature","properties":{"﻿施設ID":"2855","施設名":"本多聞公園","郵便番号":"655-0006","住所":"垂水区本多聞4","方書":"","電話番号":"","FAX番号":"","行政区コード":"垂水区","カテゴリリスト":"公園"},"geometry":{"type":"Point","coordinates":[135.051756,34.658346]}},{"type":"Feature","properties":{"﻿施設ID":"2856","施設名":"学ヶ丘北公園","郵便番号":"655-0004","住所":"垂水区学が丘5-3","方書":"","電話番号":"","FAX番号":"","行政区コード":"垂水区","カテゴリリスト":"公園"},"geometry":{"type":"Point","coordinates":[135.059609,34.660058]}},{"type":"Feature","properties":{"﻿施設ID":"2857","施設名":"本多聞南公園","郵便番号":"655-0006","住所":"垂水区本多聞7","方書":"","電話番号":"","FAX番号":"","行政区コード":"垂水区","カテゴリリスト":"公園"},"geometry":{"type":"Point","coordinates":[135.044203,34.652274]}},{"type":"Feature","properties":{"﻿施設ID":"2858","施設名":"舞子台緑地","郵便番号":"655-0046","住所":"垂水区舞子台7-2","方書":"","電話番号":"","FAX番号":"","行政区コード":"垂水区","カテゴリリスト":"公園"},"geometry":{"type":"Point","coordinates":[135.039053,34.640411]}},{"type":"Feature","properties":{"﻿施設ID":"2859","施設名":"松ヶ池公園","郵便番号":"655-0007","住所":"垂水区多聞台5-1","方書":"","電話番号":"","FAX番号":"","行政区コード":"垂水区","カテゴリリスト":"公園"},"geometry":{"type":"Point","coordinates":[135.043151,34.664417]}},{"type":"Feature","properties":{"﻿施設ID":"2860","施設名":"西舞子緑地","郵便番号":"655-0049","住所":"垂水区狩口台3-1","方書":"","電話番号":"","FAX番号":"","行政区コード":"垂水区","カテゴリリスト":"公園"},"geometry":{"type":"Point","coordinates":[135.029923,34.650464]}},{"type":"Feature","properties":{"﻿施設ID":"2861","施設名":"折が谷公園","郵便番号":"655-0004","住所":"垂水区学が丘1","方書":"","電話番号":"","FAX番号":"","行政区コード":"垂水区","カテゴリリスト":"公園"},"geometry":{"type":"Point","coordinates":[135.051745,34.649379]}},{"type":"Feature","properties":{"﻿施設ID":"2862","施設名":"つつじが丘公園","郵便番号":"655-0853","住所":"垂水区つつじが丘4","方書":"","電話番号":"","FAX番号":"","行政区コード":"垂水区","カテゴリリスト":"公園"},"geometry":{"type":"Point","coordinates":[135.078192,34.659766]}},{"type":"Feature","properties":{"﻿施設ID":"2863","施設名":"清玄高倉公園","郵便番号":"655-0865","住所":"垂水区清玄町","方書":"","電話番号":"","FAX番号":"","行政区コード":"垂水区","カテゴリリスト":"公園"},"geometry":{"type":"Point","coordinates":[135.09635,34.652384]}},{"type":"Feature","properties":{"﻿施設ID":"2864","施設名":"高曽公園","郵便番号":"655-0852","住所":"垂水区名谷町字高曽","方書":"","電話番号":"","FAX番号":"","行政区コード":"垂水区","カテゴリリスト":"公園"},"geometry":{"type":"Point","coordinates":[135.077457,34.667444]}},{"type":"Feature","properties":{"﻿施設ID":"2865","施設名":"桃山台公園","郵便番号":"655-0854","住所":"垂水区桃山台3-21","方書":"","電話番号":"","FAX番号":"","行政区コード":"垂水区","カテゴリリスト":"公園"},"geometry":{"type":"Point","coordinates":[135.081941,34.656389]}},{"type":"Feature","properties":{"﻿施設ID":"2866","施設名":"多聞台南公園","郵便番号":"655-0007","住所":"垂水区多聞台2","方書":"","電話番号":"","FAX番号":"","行政区コード":"垂水区","カテゴリリスト":"公園"},"geometry":{"type":"Point","coordinates":[135.040925,34.658121]}},{"type":"Feature","properties":{"﻿施設ID":"2867","施設名":"学園緑が丘公園","郵便番号":"655-0002","住所":"垂水区小束山2","方書":"","電話番号":"","FAX番号":"","行政区コード":"垂水区","カテゴリリスト":"公園"},"geometry":{"type":"Point","coordinates":[135.06528,34.671516]}},{"type":"Feature","properties":{"﻿施設ID":"2868","施設名":"舞子細道公園","郵便番号":"655-0048","住所":"垂水区西舞子4","方書":"","電話番号":"","FAX番号":"","行政区コード":"垂水区","カテゴリリスト":"公園"},"geometry":{"type":"Point","coordinates":[135.029483,34.645548]}},{"type":"Feature","properties":{"﻿施設ID":"2869","施設名":"滑公園","郵便番号":"655-0853","住所":"垂水区つつじが丘5","方書":"","電話番号":"","FAX番号":"","行政区コード":"垂水区","カテゴリリスト":"公園"},"geometry":{"type":"Point","coordinates":[135.073611,34.661518]}},{"type":"Feature","properties":{"﻿施設ID":"2870","施設名":"多聞台中央公園","郵便番号":"655-0007","住所":"垂水区多聞台4","方書":"","電話番号":"","FAX番号":"","行政区コード":"垂水区","カテゴリリスト":"公園"},"geometry":{"type":"Point","coordinates":[135.042475,34.661088]}},{"type":"Feature","properties":{"﻿施設ID":"2871","施設名":"多聞台西公園","郵便番号":"655-0041","住所":"垂水区神陵台7","方書":"","電話番号":"","FAX番号":"","行政区コード":"垂水区","カテゴリリスト":"公園"},"geometry":{"type":"Point","coordinates":[135.038216,34.662012]}},{"type":"Feature","properties":{"﻿施設ID":"2872","施設名":"塩屋台公園","郵便番号":"655-0864","住所":"垂水区塩屋台1","方書":"","電話番号":"","FAX番号":"","行政区コード":"垂水区","カテゴリリスト":"公園"},"geometry":{"type":"Point","coordinates":[135.084575,34.64268]}},{"type":"Feature","properties":{"﻿施設ID":"2873","施設名":"学が丘東公園","郵便番号":"655-0004","住所":"垂水区学が丘3","方書":"","電話番号":"","FAX番号":"","行政区コード":"垂水区","カテゴリリスト":"公園"},"geometry":{"type":"Point","coordinates":[135.057544,34.656477]}},{"type":"Feature","properties":{"﻿施設ID":"2874","施設名":"打田山公園","郵便番号":"655-0043","住所":"垂水区南多聞台5","方書":"","電話番号":"","FAX番号":"","行政区コード":"垂水区","カテゴリリスト":"公園"},"geometry":{"type":"Point","coordinates":[135.030481,34.654204]}},{"type":"Feature","properties":{"﻿施設ID":"2875","施設名":"狩口台西公園","郵便番号":"655-0049","住所":"垂水区狩口台6","方書":"","電話番号":"","FAX番号":"","行政区コード":"垂水区","カテゴリリスト":"公園"},"geometry":{"type":"Point","coordinates":[135.016278,34.646279]}},{"type":"Feature","properties":{"﻿施設ID":"2876","施設名":"西ノ田公園","郵便番号":"655-0872","住所":"垂水区塩屋町6","方書":"","電話番号":"","FAX番号":"","行政区コード":"垂水区","カテゴリリスト":"公園"},"geometry":{"type":"Point","coordinates":[135.073307,34.634358]}},{"type":"Feature","properties":{"﻿施設ID":"2877","施設名":"きつね塚緑地","郵便番号":"655-0049","住所":"垂水区狩口台7","方書":"","電話番号":"","FAX番号":"","行政区コード":"垂水区","カテゴリリスト":"公園"},"geometry":{"type":"Point","coordinates":[135.023703,34.643686]}},{"type":"Feature","properties":{"﻿施設ID":"2878","施設名":"神陵台緑地","郵便番号":"655-0041","住所":"垂水区神陵台3","方書":"","電話番号":"","FAX番号":"","行政区コード":"垂水区","カテゴリリスト":"公園"},"geometry":{"type":"Point","coordinates":[135.037239,34.655675]}},{"type":"Feature","properties":{"﻿施設ID":"2879","施設名":"北舞子公園","郵便番号":"655-0045","住所":"垂水区北舞子4","方書":"","電話番号":"","FAX番号":"","行政区コード":"垂水区","カテゴリリスト":"公園"},"geometry":{"type":"Point","coordinates":[135.037385,34.642441]}},{"type":"Feature","properties":{"﻿施設ID":"2880","施設名":"上平尾公園","郵便番号":"655-0883","住所":"垂水区王居殿3","方書":"","電話番号":"","FAX番号":"","行政区コード":"垂水区","カテゴリリスト":"公園"},"geometry":{"type":"Point","coordinates":[135.070805,34.636377]}},{"type":"Feature","properties":{"﻿施設ID":"2881","施設名":"青山台北公園","郵便番号":"655-0873","住所":"垂水区青山台6","方書":"","電話番号":"","FAX番号":"","行政区コード":"垂水区","カテゴリリスト":"公園"},"geometry":{"type":"Point","coordinates":[135.071851,34.644745]}},{"type":"Feature","properties":{"﻿施設ID":"2882","施設名":"舞子台町公園","郵便番号":"655-0046","住所":"垂水区舞子台3","方書":"","電話番号":"","FAX番号":"","行政区コード":"垂水区","カテゴリリスト":"公園"},"geometry":{"type":"Point","coordinates":[135.039048,34.638921]}},{"type":"Feature","properties":{"﻿施設ID":"2883","施設名":"清玄町緑道","郵便番号":"655-0865","住所":"垂水区清玄町","方書":"","電話番号":"","FAX番号":"","行政区コード":"垂水区","カテゴリリスト":"公園"},"geometry":{"type":"Point","coordinates":[135.094953,34.652916]}},{"type":"Feature","properties":{"﻿施設ID":"2884","施設名":"瑞穂公園","郵便番号":"655-0022","住所":"垂水区瑞穂通","方書":"","電話番号":"","FAX番号":"","行政区コード":"垂水区","カテゴリリスト":"公園"},"geometry":{"type":"Point","coordinates":[135.061117,34.634325]}},{"type":"Feature","properties":{"﻿施設ID":"2885","施設名":"潮見が丘東公園","郵便番号":"655-0005","住所":"垂水区潮見が丘1","方書":"","電話番号":"","FAX番号":"","行政区コード":"垂水区","カテゴリリスト":"公園"},"geometry":{"type":"Point","coordinates":[135.058566,34.647391]}},{"type":"Feature","properties":{"﻿施設ID":"2886","施設名":"青山台東公園","郵便番号":"655-0873","住所":"垂水区青山台4","方書":"","電話番号":"","FAX番号":"","行政区コード":"垂水区","カテゴリリスト":"公園"},"geometry":{"type":"Point","coordinates":[135.075826,34.642695]}},{"type":"Feature","properties":{"﻿施設ID":"2887","施設名":"川原公園","郵便番号":"655-0886","住所":"垂水区東垂水2","方書":"","電話番号":"","FAX番号":"","行政区コード":"垂水区","カテゴリリスト":"公園"},"geometry":{"type":"Point","coordinates":[135.064955,34.636737]}},{"type":"Feature","properties":{"﻿施設ID":"2888","施設名":"小束山3丁目公園","郵便番号":"655-0002","住所":"垂水区小束山3","方書":"","電話番号":"","FAX番号":"","行政区コード":"垂水区","カテゴリリスト":"公園"},"geometry":{"type":"Point","coordinates":[135.064148,34.66916]}},{"type":"Feature","properties":{"﻿施設ID":"2889","施設名":"泉ヶ丘北公園","郵便番号":"655-0885","住所":"垂水区泉ヶ丘5","方書":"","電話番号":"","FAX番号":"","行政区コード":"垂水区","カテゴリリスト":"公園"},"geometry":{"type":"Point","coordinates":[135.066165,34.634137]}},{"type":"Feature","properties":{"﻿施設ID":"2890","施設名":"高塚公園","郵便番号":"651-2271","住所":"西区高塚台5-2-1","方書":"","電話番号":"","FAX番号":"","行政区コード":"西区","カテゴリリスト":"公園"},"geometry":{"type":"Point","coordinates":[135.017477,34.726928]}},{"type":"Feature","properties":{"﻿施設ID":"2891","施設名":"西神中央公園","郵便番号":"651-2235","住所":"西区櫨谷町長谷","方書":"","電話番号":"","FAX番号":"","行政区コード":"西区","カテゴリリスト":"公園"},"geometry":{"type":"Point","coordinates":[135.019999,34.714507]}},{"type":"Feature","properties":{"﻿施設ID":"2892","施設名":"樫野台公園","郵便番号":"651-2275","住所":"西区樫野台5","方書":"","電話番号":"","FAX番号":"","行政区コード":"西区","カテゴリリスト":"公園"},"geometry":{"type":"Point","coordinates":[134.999764,34.707204]}},{"type":"Feature","properties":{"﻿施設ID":"2893","施設名":"春日台公園","郵便番号":"651-2276","住所":"西区春日台9","方書":"","電話番号":"","FAX番号":"","行政区コード":"西区","カテゴリリスト":"公園"},"geometry":{"type":"Point","coordinates":[134.999828,34.713537]}},{"type":"Feature","properties":{"﻿施設ID":"2894","施設名":"月が丘公園","郵便番号":"651-2217","住所":"西区月が丘3","方書":"","電話番号":"","FAX番号":"","行政区コード":"西区","カテゴリリスト":"公園"},"geometry":{"type":"Point","coordinates":[135.054073,34.76413]}},{"type":"Feature","properties":{"﻿施設ID":"2895","施設名":"井吹台東公園","郵便番号":"651-2242","住所":"西区井吹台東町6","方書":"","電話番号":"","FAX番号":"","行政区コード":"西区","カテゴリリスト":"公園"},"geometry":{"type":"Point","coordinates":[135.040888,34.704576]}},{"type":"Feature","properties":{"﻿施設ID":"2896","施設名":"糀台公園","郵便番号":"651-2273","住所":"西区糀台3","方書":"","電話番号":"","FAX番号":"","行政区コード":"西区","カテゴリリスト":"公園"},"geometry":{"type":"Point","coordinates":[135.025899,34.719551]}},{"type":"Feature","properties":{"﻿施設ID":"2897","施設名":"竹の台公園","郵便番号":"651-2274","住所":"西区竹の台3","方書":"","電話番号":"","FAX番号":"","行政区コード":"西区","カテゴリリスト":"公園"},"geometry":{"type":"Point","coordinates":[135.009205,34.7112]}},{"type":"Feature","properties":{"﻿施設ID":"2898","施設名":"井吹台西公園","郵便番号":"651-2243","住所":"西区井吹台西町5","方書":"","電話番号":"","FAX番号":"","行政区コード":"西区","カテゴリリスト":"公園"},"geometry":{"type":"Point","coordinates":[135.019634,34.692262]}},{"type":"Feature","properties":{"﻿施設ID":"2899","施設名":"美賀多台公園","郵便番号":"651-2277","住所":"西区美賀多台9-1","方書":"","電話番号":"","FAX番号":"","行政区コード":"西区","カテゴリリスト":"公園"},"geometry":{"type":"Point","coordinates":[135.011748,34.722788]}},{"type":"Feature","properties":{"﻿施設ID":"2900","施設名":"樫野台緑地","郵便番号":"651-2275","住所":"西区樫野台1","方書":"","電話番号":"","FAX番号":"","行政区コード":"西区","カテゴリリスト":"公園"},"geometry":{"type":"Point","coordinates":[135.00379,34.705701]}},{"type":"Feature","properties":{"﻿施設ID":"2901","施設名":"久留主谷公園","郵便番号":"651-2241","住所":"西区室谷1-4","方書":"","電話番号":"","FAX番号":"","行政区コード":"西区","カテゴリリスト":"公園"},"geometry":{"type":"Point","coordinates":[135.053194,34.702036]}},{"type":"Feature","properties":{"﻿施設ID":"2902","施設名":"学園西町公園","郵便番号":"651-2103","住所":"西区学園西町5-9","方書":"","電話番号":"","FAX番号":"","行政区コード":"西区","カテゴリリスト":"公園"},"geometry":{"type":"Point","coordinates":[135.052614,34.684455]}},{"type":"Feature","properties":{"﻿施設ID":"2903","施設名":"小寺緑地","郵便番号":"651-2103","住所":"西区学園西町6","方書":"","電話番号":"","FAX番号":"","行政区コード":"西区","カテゴリリスト":"公園"},"geometry":{"type":"Point","coordinates":[135.051037,34.682258]}},{"type":"Feature","properties":{"﻿施設ID":"2904","施設名":"学園東町公園","郵便番号":"651-2102","住所":"西区学園東町5-3","方書":"","電話番号":"","FAX番号":"","行政区コード":"西区","カテゴリリスト":"公園"},"geometry":{"type":"Point","coordinates":[135.066487,34.684243]}},{"type":"Feature","properties":{"﻿施設ID":"2905","施設名":"竜が岡中央公園","郵便番号":"651-2412","住所":"西区竜が岡3-16","方書":"","電話番号":"","FAX番号":"","行政区コード":"西区","カテゴリリスト":"公園"},"geometry":{"type":"Point","coordinates":[134.935949,34.713264]}},{"type":"Feature","properties":{"﻿施設ID":"2906","施設名":"桜が丘公園","郵便番号":"651-2226","住所":"西区桜が丘中町3-1","方書":"","電話番号":"","FAX番号":"","行政区コード":"西区","カテゴリリスト":"公園"},"geometry":{"type":"Point","coordinates":[135.057544,34.746373]}},{"type":"Feature","properties":{"﻿施設ID":"2907","施設名":"狩場台公園","郵便番号":"651-2272","住所":"西区狩場台5","方書":"","電話番号":"","FAX番号":"","行政区コード":"西区","カテゴリリスト":"公園"},"geometry":{"type":"Point","coordinates":[135.03136,34.723934]}},{"type":"Feature","properties":{"﻿施設ID":"2908","施設名":"池上中央公園","郵便番号":"651-2111","住所":"西区池上2-21","方書":"","電話番号":"","FAX番号":"","行政区コード":"西区","カテゴリリスト":"公園"},"geometry":{"type":"Point","coordinates":[135.027337,34.67107]}},{"type":"Feature","properties":{"﻿施設ID":"2909","施設名":"桜が丘中央公園","郵便番号":"650-0000","住所":"西区桜が丘東町3-1","方書":"","電話番号":"","FAX番号":"","行政区コード":"西区","カテゴリリスト":"公園"},"geometry":{"type":"Point","coordinates":[135.059438,34.747651]}},{"type":"Feature","properties":{"﻿施設ID":"2910","施設名":"天王山北公園","郵便番号":"651-2123","住所":"西区天王山","方書":"","電話番号":"","FAX番号":"","行政区コード":"西区","カテゴリリスト":"公園"},"geometry":{"type":"Point","coordinates":[135.009956,34.677017]}},{"type":"Feature","properties":{"﻿施設ID":"2911","施設名":"井吹台中公園","郵便番号":"651-2242","住所":"西区井吹台東町2","方書":"","電話番号":"","FAX番号":"","行政区コード":"西区","カテゴリリスト":"公園"},"geometry":{"type":"Point","coordinates":[135.03194,34.698481]}},{"type":"Feature","properties":{"﻿施設ID":"2912","施設名":"玉津南公園","郵便番号":"651-2126","住所":"西区玉津町上池","方書":"","電話番号":"","FAX番号":"","行政区コード":"西区","カテゴリリスト":"公園"},"geometry":{"type":"Point","coordinates":[134.992683,34.658098]}},{"type":"Feature","properties":{"﻿施設ID":"2913","施設名":"湯屋ヶ谷公園","郵便番号":"651-2102","住所":"西区学園東町6","方書":"","電話番号":"","FAX番号":"","行政区コード":"西区","カテゴリリスト":"公園"},"geometry":{"type":"Point","coordinates":[135.07139,34.680502]}},{"type":"Feature","properties":{"﻿施設ID":"2914","施設名":"平谷広場","郵便番号":"651-2271","住所":"西区高塚台7","方書":"","電話番号":"","FAX番号":"","行政区コード":"西区","カテゴリリスト":"公園"},"geometry":{"type":"Point","coordinates":[135.01847,34.740153]}},{"type":"Feature","properties":{"﻿施設ID":"2915","施設名":"城山公園","郵便番号":"651-2133","住所":"西区枝吉3-1","方書":"","電話番号":"","FAX番号":"","行政区コード":"西区","カテゴリリスト":"公園"},"geometry":{"type":"Point","coordinates":[134.973773,34.666522]}},{"type":"Feature","properties":{"﻿施設ID":"2916","施設名":"芝垣内公園","郵便番号":"651-2117","住所":"西区北別府2","方書":"","電話番号":"","FAX番号":"","行政区コード":"西区","カテゴリリスト":"公園"},"geometry":{"type":"Point","coordinates":[135.015026,34.676184]}},{"type":"Feature","properties":{"﻿施設ID":"2917","施設名":"蓮池公園","郵便番号":"651-2133","住所":"西区枝吉1","方書":"","電話番号":"","FAX番号":"","行政区コード":"西区","カテゴリリスト":"公園"},"geometry":{"type":"Point","coordinates":[134.977298,34.663027]}},{"type":"Feature","properties":{"﻿施設ID":"2918","施設名":"王塚公園","郵便番号":"651-2135","住所":"西区王塚台3","方書":"","電話番号":"","FAX番号":"","行政区コード":"西区","カテゴリリスト":"公園"},"geometry":{"type":"Point","coordinates":[134.971697,34.67197]}},{"type":"Feature","properties":{"﻿施設ID":"2919","施設名":"出合丸山公園","郵便番号":"651-2136","住所":"西区中野1","方書":"","電話番号":"","FAX番号":"","行政区コード":"西区","カテゴリリスト":"公園"},"geometry":{"type":"Point","coordinates":[134.968795,34.679353]}},{"type":"Feature","properties":{"﻿施設ID":"2920","施設名":"垣内広場","郵便番号":"651-2271","住所":"西区高塚台6","方書":"","電話番号":"","FAX番号":"","行政区コード":"西区","カテゴリリスト":"公園"},"geometry":{"type":"Point","coordinates":[135.017059,34.735635]}},{"type":"Feature","properties":{"﻿施設ID":"2921","施設名":"春日五六公園","郵便番号":"651-2276","住所":"西区春日台7","方書":"","電話番号":"","FAX番号":"","行政区コード":"西区","カテゴリリスト":"公園"},"geometry":{"type":"Point","coordinates":[134.994571,34.708819]}},{"type":"Feature","properties":{"﻿施設ID":"2922","施設名":"春日南公園","郵便番号":"651-2276","住所":"西区春日台4","方書":"","電話番号":"","FAX番号":"","行政区コード":"西区","カテゴリリスト":"公園"},"geometry":{"type":"Point","coordinates":[134.995424,34.705873]}},{"type":"Feature","properties":{"﻿施設ID":"2923","施設名":"宮下公園","郵便番号":"651-2146","住所":"西区宮下2","方書":"","電話番号":"","FAX番号":"","行政区コード":"西区","カテゴリリスト":"公園"},"geometry":{"type":"Point","coordinates":[134.977443,34.690524]}},{"type":"Feature","properties":{"﻿施設ID":"2924","施設名":"東細谷公園","郵便番号":"651-2113","住所":"西区伊川谷有瀬字一本松","方書":"","電話番号":"","FAX番号":"","行政区コード":"西区","カテゴリリスト":"公園"},"geometry":{"type":"Point","coordinates":[135.034118,34.663115]}},{"type":"Feature","properties":{"﻿施設ID":"2925","施設名":"今津公園","郵便番号":"651-2128","住所":"西区玉津町今津字東山","方書":"","電話番号":"","FAX番号":"","行政区コード":"西区","カテゴリリスト":"公園"},"geometry":{"type":"Point","coordinates":[134.989336,34.671988]}},{"type":"Feature","properties":{"﻿施設ID":"2926","施設名":"薬師池広場","郵便番号":"651-2236","住所":"西区櫨谷町栃木字堂の前","方書":"","電話番号":"","FAX番号":"","行政区コード":"西区","カテゴリリスト":"公園"},"geometry":{"type":"Point","coordinates":[135.011437,34.707981]}},{"type":"Feature","properties":{"﻿施設ID":"2927","施設名":"大津和南公園","郵便番号":"651-2112","住所":"西区大津和1","方書":"","電話番号":"","FAX番号":"","行政区コード":"西区","カテゴリリスト":"公園"},"geometry":{"type":"Point","coordinates":[135.03006,34.66916]}},{"type":"Feature","properties":{"﻿施設ID":"2928","施設名":"桜ヶ谷広場","郵便番号":"651-2233","住所":"西区櫨谷町福谷字上総代","方書":"","電話番号":"","FAX番号":"","行政区コード":"西区","カテゴリリスト":"公園"},"geometry":{"type":"Point","coordinates":[135.036778,34.718229]}},{"type":"Feature","properties":{"﻿施設ID":"2929","施設名":"桜が丘口の池公園","郵便番号":"651-2225","住所":"西区桜が丘東町3","方書":"","電話番号":"","FAX番号":"","行政区コード":"西区","カテゴリリスト":"公園"},"geometry":{"type":"Point","coordinates":[135.061264,34.747918]}},{"type":"Feature","properties":{"﻿施設ID":"2931","施設名":"西盛公園","郵便番号":"651-2214","住所":"西区富士見が丘2","方書":"","電話番号":"","FAX番号":"","行政区コード":"西区","カテゴリリスト":"公園"},"geometry":{"type":"Point","coordinates":[135.034928,34.759307]}},{"type":"Feature","properties":{"﻿施設ID":"2932","施設名":"美穂が丘公園","郵便番号":"651-2216","住所":"西区美穂が丘4","方書":"","電話番号":"","FAX番号":"","行政区コード":"西区","カテゴリリスト":"公園"},"geometry":{"type":"Point","coordinates":[135.04387,34.760389]}},{"type":"Feature","properties":{"﻿施設ID":"2933","施設名":"前谷公園","郵便番号":"651-2114","住所":"西区今寺","方書":"","電話番号":"","FAX番号":"","行政区コード":"西区","カテゴリリスト":"公園"},"geometry":{"type":"Point","coordinates":[135.024413,34.666685]}},{"type":"Feature","properties":{"﻿施設ID":"2934","施設名":"持子公園","郵便番号":"651-2131","住所":"西区持子1","方書":"","電話番号":"","FAX番号":"","行政区コード":"西区","カテゴリリスト":"公園"},"geometry":{"type":"Point","coordinates":[134.983499,34.670514]}},{"type":"Feature","properties":{"﻿施設ID":"2935","施設名":"浄泉寺公園","郵便番号":"651-2135","住所":"西区王塚台6","方書":"","電話番号":"","FAX番号":"","行政区コード":"西区","カテゴリリスト":"公園"},"geometry":{"type":"Point","coordinates":[134.977598,34.67366]}},{"type":"Feature","properties":{"﻿施設ID":"2936","施設名":"道安公園","郵便番号":"651-2132","住所":"西区森友4","方書":"","電話番号":"","FAX番号":"","行政区コード":"西区","カテゴリリスト":"公園"},"geometry":{"type":"Point","coordinates":[134.981949,34.665727]}},{"type":"Feature","properties":{"﻿施設ID":"2937","施設名":"大澤西公園","郵便番号":"651-2414","住所":"西区大沢2","方書":"","電話番号":"","FAX番号":"","行政区コード":"西区","カテゴリリスト":"公園"},"geometry":{"type":"Point","coordinates":[134.934924,34.706781]}},{"type":"Feature","properties":{"﻿施設ID":"2938","施設名":"高津橋公園","郵便番号":"651-2122","住所":"西区玉津町高津橋字土井ノ内","方書":"","電話番号":"","FAX番号":"","行政区コード":"西区","カテゴリリスト":"公園"},"geometry":{"type":"Point","coordinates":[134.994668,34.670916]}},{"type":"Feature","properties":{"﻿施設ID":"2939","施設名":"大東公園","郵便番号":"651-2121","住所":"西区水谷1","方書":"","電話番号":"","FAX番号":"","行政区コード":"西区","カテゴリリスト":"公園"},"geometry":{"type":"Point","coordinates":[135.000102,34.679338]}},{"type":"Feature","properties":{"﻿施設ID":"2940","施設名":"学園西町中公園","郵便番号":"651-2103","住所":"西区学園西町5丁目","方書":"","電話番号":"","FAX番号":"","行政区コード":"西区","カテゴリリスト":"公園"},"geometry":{"type":"Point","coordinates":[135.056176,34.685306]}},{"type":"Feature","properties":{"﻿施設ID":"2941","施設名":"中河原公園","郵便番号":"651-2146","住所":"西区宮下1","方書":"","電話番号":"","FAX番号":"","行政区コード":"西区","カテゴリリスト":"公園"},"geometry":{"type":"Point","coordinates":[134.975737,34.68779]}},{"type":"Feature","properties":{"﻿施設ID":"2942","施設名":"北山東公園","郵便番号":"651-2215","住所":"西区北山台2","方書":"","電話番号":"","FAX番号":"","行政区コード":"西区","カテゴリリスト":"公園"},"geometry":{"type":"Point","coordinates":[135.032315,34.765016]}},{"type":"Feature","properties":{"﻿施設ID":"2943","施設名":"月が丘南公園","郵便番号":"651-2217","住所":"西区月が丘5","方書":"","電話番号":"","FAX番号":"","行政区コード":"西区","カテゴリリスト":"公園"},"geometry":{"type":"Point","coordinates":[135.050822,34.760008]}},{"type":"Feature","properties":{"﻿施設ID":"2944","施設名":"学園西町小寺公園","郵便番号":"651-2103","住所":"西区学園西町7","方書":"","電話番号":"","FAX番号":"","行政区コード":"西区","カテゴリリスト":"公園"},"geometry":{"type":"Point","coordinates":[135.055672,34.678945]}},{"type":"Feature","properties":{"﻿施設ID":"2945","施設名":"樫野台オリト山公園","郵便番号":"651-2275","住所":"西区樫野台1","方書":"","電話番号":"","FAX番号":"","行政区コード":"西区","カテゴリリスト":"公園"},"geometry":{"type":"Point","coordinates":[135.008339,34.704746]}},{"type":"Feature","properties":{"﻿施設ID":"2946","施設名":"二ツ屋公園","郵便番号":"651-2141","住所":"西区天が岡","方書":"","電話番号":"","FAX番号":"","行政区コード":"西区","カテゴリリスト":"公園"},"geometry":{"type":"Point","coordinates":[134.992763,34.689541]}},{"type":"Feature","properties":{"﻿施設ID":"2947","施設名":"玉津東公園","郵便番号":"651-2125","住所":"西区玉津町新方字東方","方書":"","電話番号":"","FAX番号":"","行政区コード":"西区","カテゴリリスト":"公園"},"geometry":{"type":"Point","coordinates":[134.993938,34.660221]}},{"type":"Feature","properties":{"﻿施設ID":"2948","施設名":"鉋丁池公園","郵便番号":"651-2113","住所":"西区伊川谷町有瀬字金井場","方書":"","電話番号":"","FAX番号":"","行政区コード":"西区","カテゴリリスト":"公園"},"geometry":{"type":"Point","coordinates":[135.02002,34.664946]}},{"type":"Feature","properties":{"﻿施設ID":"2949","施設名":"竹の南公園","郵便番号":"651-2274","住所":"西区竹の台1","方書":"","電話番号":"","FAX番号":"","行政区コード":"西区","カテゴリリスト":"公園"},"geometry":{"type":"Point","coordinates":[135.01545,34.711791]}},{"type":"Feature","properties":{"﻿施設ID":"2950","施設名":"秋葉台公園","郵便番号":"651-2224","住所":"西区秋葉台1","方書":"","電話番号":"","FAX番号":"","行政区コード":"西区","カテゴリリスト":"公園"},"geometry":{"type":"Point","coordinates":[135.067205,34.74271]}},{"type":"Feature","properties":{"﻿施設ID":"2951","施設名":"狩場北公園","郵便番号":"651-2272","住所":"西区狩場台1","方書":"","電話番号":"","FAX番号":"","行政区コード":"西区","カテゴリリスト":"公園"},"geometry":{"type":"Point","coordinates":[135.033723,34.7251]}},{"type":"Feature","properties":{"﻿施設ID":"2952","施設名":"学園西町南公園","郵便番号":"651-2103","住所":"西区学園西町7","方書":"","電話番号":"","FAX番号":"","行政区コード":"西区","カテゴリリスト":"公園"},"geometry":{"type":"Point","coordinates":[135.055661,34.67895]}},{"type":"Feature","properties":{"﻿施設ID":"2953","施設名":"竹の北公園","郵便番号":"651-2274","住所":"西区竹の台6","方書":"","電話番号":"","FAX番号":"","行政区コード":"西区","カテゴリリスト":"公園"},"geometry":{"type":"Point","coordinates":[135.014103,34.715979]}},{"type":"Feature","properties":{"﻿施設ID":"3109","施設名":"舞子公園","郵便番号":"655-0047","住所":"神戸市垂水区東舞子町2051","方書":"","電話番号":"078-785-5090","FAX番号":"078-785-5109","行政区コード":"垂水区","カテゴリリスト":"公園"},"geometry":{"type":"Point","coordinates":[135.034204,34.630962]}}]}