{"type":"FeatureCollection","features":[{"type":"Feature","properties":{"﻿施設ID":"985","施設名":"東灘体育館","郵便番号":"658-0025","住所":"東灘区魚崎南町6-5-11","方書":"","電話番号":"078-452-9279","FAX番号":"","行政区コード":"東灘区","カテゴリリスト":"スポーツ"},"geometry":{"type":"Point","coordinates":[135.278137,34.714723]}},{"type":"Feature","properties":{"﻿施設ID":"986","施設名":"六甲道勤労市民センター","郵便番号":"657-0038","住所":"灘区深田町4-1-39-401","方書":"","電話番号":"078-841-1711","FAX番号":"","行政区コード":"灘区","カテゴリリスト":"スポーツ"},"geometry":{"type":"Point","coordinates":[135.239226,34.714803]}},{"type":"Feature","properties":{"﻿施設ID":"987","施設名":"王子スポーツセンター","郵便番号":"657-0805","住所":"灘区青谷町1-1-1","方書":"","電話番号":"078-802-0223","FAX番号":"","行政区コード":"灘区","カテゴリリスト":"スポーツ"},"geometry":{"type":"Point","coordinates":[135.21264,34.711326]}},{"type":"Feature","properties":{"﻿施設ID":"988","施設名":"勤労会館","郵便番号":"651-0096","住所":"中央区雲井通5-1-2","方書":"","電話番号":"078-232-1881","FAX番号":"","行政区コード":"中央区","カテゴリリスト":"スポーツ"},"geometry":{"type":"Point","coordinates":[135.197328,34.694896]}},{"type":"Feature","properties":{"﻿施設ID":"989","施設名":"生田文化会館","郵便番号":"650-0004","住所":"中央区中山手通6-1-40","方書":"","電話番号":"078-382-0861","FAX番号":"","行政区コード":"中央区","カテゴリリスト":"スポーツ"},"geometry":{"type":"Point","coordinates":[135.181268,34.691133]}},{"type":"Feature","properties":{"﻿施設ID":"990","施設名":"中央体育館","郵便番号":"650-0017","住所":"中央区楠町4-1-1","方書":"","電話番号":"078-341-7971","FAX番号":"","行政区コード":"中央区","カテゴリリスト":"スポーツ"},"geometry":{"type":"Point","coordinates":[135.174466,34.682811]}},{"type":"Feature","properties":{"﻿施設ID":"991","施設名":"オージースポーツ神戸福祉スポーツセンター","郵便番号":"651-0086","住所":"中央区磯上通3-1-32","方書":"","電話番号":"078-271-5332","FAX番号":"","行政区コード":"中央区","カテゴリリスト":"スポーツ"},"geometry":{"type":"Point","coordinates":[135.20178,34.69283]}},{"type":"Feature","properties":{"﻿施設ID":"992","施設名":"健康ライフプラザ","郵便番号":"652-0897","住所":"兵庫区駅南通5-1-2-300","方書":"","電話番号":"078-652-5203","FAX番号":"078-652-5211","行政区コード":"兵庫区","カテゴリリスト":"スポーツ"},"geometry":{"type":"Point","coordinates":[135.164529,34.667354]}},{"type":"Feature","properties":{"﻿施設ID":"994","施設名":"北神ふれあいセンター","郵便番号":"651-1502","住所":"北区道場町塩田1454-2","方書":"","電話番号":"078-985-2930","FAX番号":"","行政区コード":"北区","カテゴリリスト":"スポーツ"},"geometry":{"type":"Point","coordinates":[135.23127,34.869492]}},{"type":"Feature","properties":{"﻿施設ID":"996","施設名":"新長田勤労市民センター","郵便番号":"653-0038","住所":"長田区若松町5-5-1","方書":"","電話番号":"078-643-2431","FAX番号":"","行政区コード":"長田区","カテゴリリスト":"スポーツ"},"geometry":{"type":"Point","coordinates":[135.144344,34.656408]}},{"type":"Feature","properties":{"﻿施設ID":"997","施設名":"グリーンアリーナ神戸","郵便番号":"654-0163","住所":"須磨区緑台","方書":"神戸総合運動公園内","電話番号":"078-796-1155","FAX番号":"","行政区コード":"須磨区","カテゴリリスト":"スポーツ"},"geometry":{"type":"Point","coordinates":[135.074519,34.678305]}},{"type":"Feature","properties":{"﻿施設ID":"998","施設名":"須磨体育館","郵便番号":"654-0035","住所":"須磨区中島町1-2-2","方書":"","電話番号":"078-734-5588","FAX番号":"","行政区コード":"須磨区","カテゴリリスト":"スポーツ"},"geometry":{"type":"Point","coordinates":[135.128976,34.650736]}},{"type":"Feature","properties":{"﻿施設ID":"999","施設名":"垂水体育館","郵便番号":"655-0033","住所":"垂水区旭が丘2-1-22","方書":"","電話番号":"078-709-6262","FAX番号":"","行政区コード":"垂水区","カテゴリリスト":"スポーツ"},"geometry":{"type":"Point","coordinates":[135.051302,34.632968]}},{"type":"Feature","properties":{"﻿施設ID":"1000","施設名":"垂水勤労市民センター","郵便番号":"655-0893","住所":"垂水区日向1-5-1","方書":"","電話番号":"078-708-8901","FAX番号":"","行政区コード":"垂水区","カテゴリリスト":"スポーツ"},"geometry":{"type":"Point","coordinates":[135.056872,34.63028]}},{"type":"Feature","properties":{"﻿施設ID":"1001","施設名":"苔谷公園体育館","郵便番号":"655-0046","住所":"垂水区舞子台4-1-1","方書":"","電話番号":"078-785-2777","FAX番号":"","行政区コード":"垂水区","カテゴリリスト":"スポーツ"},"geometry":{"type":"Point","coordinates":[135.03612,34.636653]}},{"type":"Feature","properties":{"﻿施設ID":"1002","施設名":"西体育館","郵便番号":"651-2276","住所":"西区春日台5-436","方書":"","電話番号":"078-961-1381","FAX番号":"","行政区コード":"西区","カテゴリリスト":"スポーツ"},"geometry":{"type":"Point","coordinates":[134.988995,34.702898]}},{"type":"Feature","properties":{"﻿施設ID":"1003","施設名":"魚崎浜公園野球場","郵便番号":"658-0024","住所":"東灘区魚崎浜町27-41","方書":"","電話番号":"078-452-7149","FAX番号":"","行政区コード":"東灘区","カテゴリリスト":"スポーツ"},"geometry":{"type":"Point","coordinates":[135.281379,34.706201]}},{"type":"Feature","properties":{"﻿施設ID":"1004","施設名":"瀬戸公園野球場","郵便番号":"658-0025","住所":"東灘区魚崎南町1-2-1","方書":"","電話番号":"078-436-8029","FAX番号":"","行政区コード":"東灘区","カテゴリリスト":"スポーツ"},"geometry":{"type":"Point","coordinates":[135.280427,34.713155]}},{"type":"Feature","properties":{"﻿施設ID":"1005","施設名":"深江野球場","郵便番号":"658-0023","住所":"東灘区深江浜町59","方書":"","電話番号":"078-857-3556","FAX番号":"","行政区コード":"東灘区","カテゴリリスト":"スポーツ"},"geometry":{"type":"Point","coordinates":[135.300971,34.71307]}},{"type":"Feature","properties":{"﻿施設ID":"1006","施設名":"住吉浜公園（少年用）野球場","郵便番号":"658-0042","住所":"東灘区住吉浜町17-1","方書":"","電話番号":"078-856-8397","FAX番号":"","行政区コード":"東灘区","カテゴリリスト":"スポーツ"},"geometry":{"type":"Point","coordinates":[135.262019,34.706172]}},{"type":"Feature","properties":{"﻿施設ID":"1007","施設名":"大倉山公園野球場","郵便番号":"650-0017","住所":"中央区楠町7","方書":"","電話番号":"078-341-6648","FAX番号":"","行政区コード":"中央区","カテゴリリスト":"スポーツ"},"geometry":{"type":"Point","coordinates":[135.172144,34.68605]}},{"type":"Feature","properties":{"﻿施設ID":"1008","施設名":"遠矢浜公園野球場","郵便番号":"652-0866","住所":"兵庫区遠矢浜町25-1","方書":"","電話番号":"078-671-3867","FAX番号":"","行政区コード":"兵庫区","カテゴリリスト":"スポーツ"},"geometry":{"type":"Point","coordinates":[135.169673,34.648816]}},{"type":"Feature","properties":{"﻿施設ID":"1009","施設名":"あじさいスタジアム北神戸（メイン）野球場","郵便番号":"651-1311","住所":"北区有野町二郎","方書":"","電話番号":"078-951-5901","FAX番号":"","行政区コード":"北区","カテゴリリスト":"スポーツ"},"geometry":{"type":"Point","coordinates":[135.220689,34.845109]}},{"type":"Feature","properties":{"﻿施設ID":"1010","施設名":"あじさいスタジアム北神戸（サブＡ、サブＢ）野球場","郵便番号":"651-1351","住所":"北区八多町中","方書":"","電話番号":"078-951-5901","FAX番号":"","行政区コード":"北区","カテゴリリスト":"スポーツ"},"geometry":{"type":"Point","coordinates":[135.2224,34.844471]}},{"type":"Feature","properties":{"﻿施設ID":"1011","施設名":"ほっともっとフィールド神戸野球場","郵便番号":"654-0163","住所":"須磨区緑台","方書":"神戸総合運動公園内","電話番号":"078-795-4189","FAX番号":"","行政区コード":"須磨区","カテゴリリスト":"スポーツ"},"geometry":{"type":"Point","coordinates":[135.073525,34.680897]}},{"type":"Feature","properties":{"﻿施設ID":"1012","施設名":"神戸総合運動公園サブ球場野球場","郵便番号":"654-0163","住所":"須磨区緑台","方書":"神戸総合運動公園内","電話番号":"078-795-4189","FAX番号":"","行政区コード":"須磨区","カテゴリリスト":"スポーツ"},"geometry":{"type":"Point","coordinates":[135.070035,34.683773]}},{"type":"Feature","properties":{"﻿施設ID":"1013","施設名":"名谷公園野球場","郵便番号":"654-0155","住所":"須磨区西落合7-6","方書":"","電話番号":"078-797-9068","FAX番号":"","行政区コード":"須磨区","カテゴリリスト":"スポーツ"},"geometry":{"type":"Point","coordinates":[135.089076,34.683096]}},{"type":"Feature","properties":{"﻿施設ID":"1014","施設名":"本多聞南公園野球場","郵便番号":"655-0006","住所":"垂水区本多聞7-3","方書":"","電話番号":"078-781-3865","FAX番号":"","行政区コード":"垂水区","カテゴリリスト":"スポーツ"},"geometry":{"type":"Point","coordinates":[135.044098,34.652487]}},{"type":"Feature","properties":{"﻿施設ID":"1015","施設名":"桜が丘中央公園野球場","郵便番号":"651-2225","住所":"西区桜が丘東町3-1-11","方書":"","電話番号":"078-998-4580","FAX番号":"","行政区コード":"西区","カテゴリリスト":"スポーツ"},"geometry":{"type":"Point","coordinates":[135.060158,34.748263]}},{"type":"Feature","properties":{"﻿施設ID":"1016","施設名":"糀台公園野球場","郵便番号":"651-2273","住所":"西区糀台3-33","方書":"","電話番号":"078-996-9132","FAX番号":"","行政区コード":"西区","カテゴリリスト":"スポーツ"},"geometry":{"type":"Point","coordinates":[135.024958,34.719716]}},{"type":"Feature","properties":{"﻿施設ID":"1017","施設名":"高塚公園野球場","郵便番号":"651-2271","住所":"西区高塚台5-2-1","方書":"","電話番号":"078-992-1202","FAX番号":"","行政区コード":"西区","カテゴリリスト":"スポーツ"},"geometry":{"type":"Point","coordinates":[135.017992,34.72886]}},{"type":"Feature","properties":{"﻿施設ID":"1018","施設名":"住吉公園テニスコート","郵便番号":"658-0053","住所":"東灘区住吉宮町3-4","方書":"","電話番号":"078-846-6356","FAX番号":"","行政区コード":"東灘区","カテゴリリスト":"スポーツ"},"geometry":{"type":"Point","coordinates":[135.26145,34.715803]}},{"type":"Feature","properties":{"﻿施設ID":"1019","施設名":"瀬戸公園テニスコート","郵便番号":"658-0025","住所":"東灘区魚崎南町1-2-1","方書":"","電話番号":"078-436-8029","FAX番号":"","行政区コード":"東灘区","カテゴリリスト":"スポーツ"},"geometry":{"type":"Point","coordinates":[135.280432,34.714079]}},{"type":"Feature","properties":{"﻿施設ID":"1020","施設名":"魚崎浜テニスコート","郵便番号":"658-0024","住所":"東灘区魚崎浜町1-4","方書":"","電話番号":"078-452-9191","FAX番号":"","行政区コード":"東灘区","カテゴリリスト":"スポーツ"},"geometry":{"type":"Point","coordinates":[135.276354,34.704279]}},{"type":"Feature","properties":{"﻿施設ID":"1021","施設名":"六甲アイランドテニススクエアテニスコート","郵便番号":"658-0032","住所":"東灘区向洋町中1","方書":"","電話番号":"078-857-3556","FAX番号":"","行政区コード":"東灘区","カテゴリリスト":"スポーツ"},"geometry":{"type":"Point","coordinates":[135.270815,34.693219]}},{"type":"Feature","properties":{"﻿施設ID":"1022","施設名":"大和公園テニスコート","郵便番号":"657-0032","住所":"灘区中郷町5-1","方書":"","電話番号":"078-843-7351","FAX番号":"","行政区コード":"灘区","カテゴリリスト":"スポーツ"},"geometry":{"type":"Point","coordinates":[135.243287,34.715023]}},{"type":"Feature","properties":{"﻿施設ID":"1023","施設名":"鶴甲テニスガーデンテニスコート","郵便番号":"657-0011","住所":"灘区鶴甲5-1-6","方書":"","電話番号":"078-851-5850","FAX番号":"","行政区コード":"灘区","カテゴリリスト":"スポーツ"},"geometry":{"type":"Point","coordinates":[135.237853,34.737171]}},{"type":"Feature","properties":{"﻿施設ID":"1024","施設名":"王子スポーツセンターテニスコート","郵便番号":"657-0805","住所":"灘区青谷町1-1-1","方書":"","電話番号":"078-802-0223","FAX番号":"","行政区コード":"灘区","カテゴリリスト":"スポーツ"},"geometry":{"type":"Point","coordinates":[135.21264,34.711326]}},{"type":"Feature","properties":{"﻿施設ID":"1025","施設名":"港島立体駐車場テニスコート","郵便番号":"650-0046","住所":"中央区港島中町2-3","方書":"","電話番号":"078-302-5108","FAX番号":"","行政区コード":"中央区","カテゴリリスト":"スポーツ"},"geometry":{"type":"Point","coordinates":[135.215373,34.671116]}},{"type":"Feature","properties":{"﻿施設ID":"1026","施設名":"しあわせの村テニスコート","郵便番号":"651-1102","住所":"北区山田町下谷上字中一里山14-1","方書":"","電話番号":"078-743-8080","FAX番号":"","行政区コード":"北区","カテゴリリスト":"スポーツ"},"geometry":{"type":"Point","coordinates":[135.117515,34.712774]}},{"type":"Feature","properties":{"﻿施設ID":"1027","施設名":"大原山公園テニスコート","郵便番号":"651-1222","住所":"北区大原2-31","方書":"","電話番号":"078-583-4820","FAX番号":"","行政区コード":"北区","カテゴリリスト":"スポーツ"},"geometry":{"type":"Point","coordinates":[135.137401,34.744645]}},{"type":"Feature","properties":{"﻿施設ID":"1028","施設名":"掖谷（ねぶたに）公園テニスコート","郵便番号":"651-1514","住所":"北区鹿の子台南町5-2","方書":"","電話番号":"078-951-0061","FAX番号":"","行政区コード":"北区","カテゴリリスト":"スポーツ"},"geometry":{"type":"Point","coordinates":[135.211578,34.856896]}},{"type":"Feature","properties":{"﻿施設ID":"1029","施設名":"名谷テニスガーデンテニスコート","郵便番号":"654-0142","住所":"須磨区友が丘9","方書":"","電話番号":"078-792-8080","FAX番号":"","行政区コード":"須磨区","カテゴリリスト":"スポーツ"},"geometry":{"type":"Point","coordinates":[135.088583,34.67111]}},{"type":"Feature","properties":{"﻿施設ID":"1030","施設名":"神戸総合運動公園テニスコート","郵便番号":"654-0163","住所":"須磨区緑台","方書":"","電話番号":"078-794-0911","FAX番号":"","行政区コード":"須磨区","カテゴリリスト":"スポーツ"},"geometry":{"type":"Point","coordinates":[135.076931,34.676763]}},{"type":"Feature","properties":{"﻿施設ID":"1031","施設名":"海浜公園テニスコート","郵便番号":"654-0049","住所":"須磨区若宮町1","方書":"","電話番号":"078-731-7327","FAX番号":"","行政区コード":"須磨区","カテゴリリスト":"スポーツ"},"geometry":{"type":"Point","coordinates":[135.132139,34.644586]}},{"type":"Feature","properties":{"﻿施設ID":"1032","施設名":"垂水スポーツガーデンテニスコート","郵便番号":"655-0892","住所":"垂水区平磯1","方書":"","電話番号":"078-751-1212","FAX番号":"","行政区コード":"垂水区","カテゴリリスト":"スポーツ"},"geometry":{"type":"Point","coordinates":[135.062101,34.62652]}},{"type":"Feature","properties":{"﻿施設ID":"1033","施設名":"本多聞南公園テニスコート","郵便番号":"655-0006","住所":"垂水区本多聞7-3","方書":"","電話番号":"078-781-3865","FAX番号":"","行政区コード":"垂水区","カテゴリリスト":"スポーツ"},"geometry":{"type":"Point","coordinates":[135.041775,34.652713]}},{"type":"Feature","properties":{"﻿施設ID":"1034","施設名":"垂水健康公園テニスコート","郵便番号":"655-0852","住所":"垂水区名谷町字丸尾","方書":"","電話番号":"078-709-2400","FAX番号":"","行政区コード":"垂水区","カテゴリリスト":"スポーツ"},"geometry":{"type":"Point","coordinates":[135.063447,34.657983]}},{"type":"Feature","properties":{"﻿施設ID":"1035","施設名":"西神ニュータウンテニスガーデンテニスコート","郵便番号":"651-2271","住所":"西区高塚台4-12","方書":"","電話番号":"078-991-2477","FAX番号":"","行政区コード":"西区","カテゴリリスト":"スポーツ"},"geometry":{"type":"Point","coordinates":[135.022453,34.722808]}},{"type":"Feature","properties":{"﻿施設ID":"1036","施設名":"西神南テニスガーデンテニスコート","郵便番号":"651-2242","住所":"西区井吹台東町7","方書":"","電話番号":"078-997-0293","FAX番号":"","行政区コード":"西区","カテゴリリスト":"スポーツ"},"geometry":{"type":"Point","coordinates":[135.045329,34.702728]}},{"type":"Feature","properties":{"﻿施設ID":"1037","施設名":"王子スポーツセンタープール","郵便番号":"657-0838","住所":"灘区王子町3-1-1","方書":"","電話番号":"078-802-0223","FAX番号":"","行政区コード":"灘区","カテゴリリスト":"スポーツ"},"geometry":{"type":"Point","coordinates":[135.214262,34.712487]}},{"type":"Feature","properties":{"﻿施設ID":"1038","施設名":"ポートアイランドスポーツセンタープール","郵便番号":"650-0046","住所":"中央区港島中町6-12-1","方書":"","電話番号":"078-302-1031","FAX番号":"","行政区コード":"中央区","カテゴリリスト":"スポーツ"},"geometry":{"type":"Point","coordinates":[135.210713,34.663116]}},{"type":"Feature","properties":{"﻿施設ID":"1039","施設名":"オージースポーツ神戸福祉スポーツセンタープール","郵便番号":"651-0086","住所":"中央区磯上通3-1-32","方書":"","電話番号":"078-271-5332","FAX番号":"","行政区コード":"中央区","カテゴリリスト":"スポーツ"},"geometry":{"type":"Point","coordinates":[135.20178,34.69283]}},{"type":"Feature","properties":{"﻿施設ID":"1040","施設名":"しあわせの村プール","郵便番号":"651-1102","住所":"北区山田町下谷上字中一里山14-1","方書":"","電話番号":"078-743-8000","FAX番号":"","行政区コード":"北区","カテゴリリスト":"スポーツ"},"geometry":{"type":"Point","coordinates":[135.11538,34.708807]}},{"type":"Feature","properties":{"﻿施設ID":"1041","施設名":"フルーツ・フラワーパークプール","郵便番号":"651-1522","住所":"北区大沢町上大沢2150","方書":"","電話番号":"078-954-1000","FAX番号":"","行政区コード":"北区","カテゴリリスト":"スポーツ"},"geometry":{"type":"Point","coordinates":[135.192223,34.848261]}},{"type":"Feature","properties":{"﻿施設ID":"1042","施設名":"北須磨文化センタープール","郵便番号":"654-0154","住所":"須磨区中落合3-1-2","方書":"","電話番号":"078-791-0840","FAX番号":"","行政区コード":"須磨区","カテゴリリスト":"スポーツ"},"geometry":{"type":"Point","coordinates":[135.095303,34.683968]}},{"type":"Feature","properties":{"﻿施設ID":"1043","施設名":"瀬戸公園","郵便番号":"658-0025","住所":"東灘区魚崎南町1-2-1","方書":"","電話番号":"078-436-8029","FAX番号":"","行政区コード":"東灘区","カテゴリリスト":"スポーツ"},"geometry":{"type":"Point","coordinates":[135.280017,34.712308]}},{"type":"Feature","properties":{"﻿施設ID":"1044","施設名":"王子スタジアム","郵便番号":"657-0838","住所":"灘区王子町2-1","方書":"","電話番号":"078-861-5627","FAX番号":"","行政区コード":"灘区","カテゴリリスト":"スポーツ"},"geometry":{"type":"Point","coordinates":[135.216948,34.710026]}},{"type":"Feature","properties":{"﻿施設ID":"1045","施設名":"磯上公園","郵便番号":"651-0085","住所":"中央区八幡通2-1","方書":"","電話番号":"078-221-4442","FAX番号":"","行政区コード":"中央区","カテゴリリスト":"スポーツ"},"geometry":{"type":"Point","coordinates":[135.199128,34.691564]}},{"type":"Feature","properties":{"﻿施設ID":"1046","施設名":"小野浜公園","郵便番号":"651-0083","住所":"中央区浜辺通1-7-3","方書":"","電話番号":"078-232-1355","FAX番号":"","行政区コード":"中央区","カテゴリリスト":"スポーツ"},"geometry":{"type":"Point","coordinates":[135.20348,34.688934]}},{"type":"Feature","properties":{"﻿施設ID":"1047","施設名":"ノエビアスタジアム神戸","郵便番号":"652-0855","住所":"兵庫区御崎町1-2-2","方書":"","電話番号":"078-652-5656","FAX番号":"","行政区コード":"兵庫区","カテゴリリスト":"スポーツ"},"geometry":{"type":"Point","coordinates":[135.168971,34.656805]}},{"type":"Feature","properties":{"﻿施設ID":"1048","施設名":"神戸総合運動公園","郵便番号":"654-0068","住所":"須磨区緑台","方書":"","電話番号":"078-795-5151","FAX番号":"","行政区コード":"須磨区","カテゴリリスト":"スポーツ"},"geometry":{"type":"Point","coordinates":[135.075922,34.681755]}},{"type":"Feature","properties":{"﻿施設ID":"1049","施設名":"海浜公園","郵便番号":"654-0049","住所":"須磨区若宮町1","方書":"","電話番号":"078-731-7327","FAX番号":"","行政区コード":"須磨区","カテゴリリスト":"スポーツ"},"geometry":{"type":"Point","coordinates":[135.127018,34.64352]}},{"type":"Feature","properties":{"﻿施設ID":"1050","施設名":"しあわせの村","郵便番号":"651-1102","住所":"北区山田町下谷上字中一里山14-1","方書":"","電話番号":"078-743-8000","FAX番号":"","行政区コード":"北区","カテゴリリスト":"スポーツ"},"geometry":{"type":"Point","coordinates":[135.115045,34.705455]}},{"type":"Feature","properties":{"﻿施設ID":"1051","施設名":"北神戸田園スポーツ公園","郵便番号":"651-1311","住所":"北区有野町二郎","方書":"","電話番号":"078-951-5901","FAX番号":"","行政区コード":"北区","カテゴリリスト":"スポーツ"},"geometry":{"type":"Point","coordinates":[135.222229,34.847557]}},{"type":"Feature","properties":{"﻿施設ID":"1052","施設名":"垂水健康公園","郵便番号":"655-0852","住所":"垂水区名谷町字丸尾","方書":"","電話番号":"078-709-2400","FAX番号":"","行政区コード":"垂水区","カテゴリリスト":"スポーツ"},"geometry":{"type":"Point","coordinates":[135.064045,34.660287]}},{"type":"Feature","properties":{"﻿施設ID":"1053","施設名":"バレーボールコート王子スポーツセンター","郵便番号":"657-0805","住所":"灘区青谷町1-1-1","方書":"","電話番号":"078-802-0223","FAX番号":"","行政区コード":"灘区","カテゴリリスト":"スポーツ"},"geometry":{"type":"Point","coordinates":[135.214246,34.712591]}},{"type":"Feature","properties":{"﻿施設ID":"1055","施設名":"陸上競技場しあわせの村","郵便番号":"651-1102","住所":"北区山田町下谷上字中一里山14-1","方書":"","電話番号":"078-743-8000","FAX番号":"","行政区コード":"北区","カテゴリリスト":"スポーツ"},"geometry":{"type":"Point","coordinates":[135.116043,34.7109]}},{"type":"Feature","properties":{"﻿施設ID":"1056","施設名":"陸上競技場ユニバー記念競技場","郵便番号":"654-0163","住所":"須磨区緑台","方書":"神戸総合運動公園内","電話番号":"078-793-6150","FAX番号":"","行政区コード":"須磨区","カテゴリリスト":"スポーツ"},"geometry":{"type":"Point","coordinates":[135.080286,34.682231]}},{"type":"Feature","properties":{"﻿施設ID":"1057","施設名":"キャンプ場自然の家","郵便番号":"657-0101","住所":"灘区六甲山町中一里山1-1","方書":"","電話番号":"078-891-0001","FAX番号":"","行政区コード":"灘区","カテゴリリスト":"スポーツ"},"geometry":{"type":"Point","coordinates":[135.213187,34.743805]}},{"type":"Feature","properties":{"﻿施設ID":"1058","施設名":"キャンプ場洞川教育キャンプ場","郵便番号":"651-1102","住所":"北区山田町下谷上字中一里山4-1","方書":"","電話番号":"078-232-1509","FAX番号":"","行政区コード":"北区","カテゴリリスト":"スポーツ"},"geometry":{"type":"Point","coordinates":[135.169518,34.729414]}},{"type":"Feature","properties":{"﻿施設ID":"1059","施設名":"キャンプ場しあわせの村オートキャンプ場・デイキャンプ場・テントキャンプ場","郵便番号":"651-1102","住所":"北区山田町下谷上字中一里山14-1","方書":"","電話番号":"078-743-8000","FAX番号":"","行政区コード":"北区","カテゴリリスト":"スポーツ"},"geometry":{"type":"Point","coordinates":[135.112094,34.715278]}},{"type":"Feature","properties":{"﻿施設ID":"1060","施設名":"キャンプ場神戸青少年公園デイキャンプ場","郵便番号":"651-1623","住所":"北区淡河町野瀬字南山","方書":"","電話番号":"078-958-0588","FAX番号":"","行政区コード":"北区","カテゴリリスト":"スポーツ"},"geometry":{"type":"Point","coordinates":[135.145222,34.800761]}},{"type":"Feature","properties":{"﻿施設ID":"1061","施設名":"キャンプ場いぶきの森","郵便番号":"651-2242","住所":"西区井吹台東町","方書":"","電話番号":"078-997-0293","FAX番号":"","行政区コード":"西区","カテゴリリスト":"スポーツ"},"geometry":{"type":"Point","coordinates":[135.04527,34.702743]}},{"type":"Feature","properties":{"﻿施設ID":"1062","施設名":"ヨット須磨ヨットハーバー","郵便番号":"654-0049","住所":"須磨区若宮町1-1-4","方書":"","電話番号":"078-735-7968","FAX番号":"","行政区コード":"須磨区","カテゴリリスト":"スポーツ"},"geometry":{"type":"Point","coordinates":[135.130969,34.642761]}},{"type":"Feature","properties":{"﻿施設ID":"1063","施設名":"プレジャーボート神戸フィッシャリーナ","郵便番号":"655-0036","住所":"垂水区海岸通12-5","方書":"マリンピア神戸内","電話番号":"078-707-1530","FAX番号":"","行政区コード":"垂水区","カテゴリリスト":"スポーツ"},"geometry":{"type":"Point","coordinates":[135.048505,34.625538]}},{"type":"Feature","properties":{"﻿施設ID":"1064","施設名":"サイクリングつくはらサイクリングターミナル","郵便番号":"651-1264","住所":"北区山田町衝原","方書":"","電話番号":"078-581-8461","FAX番号":"","行政区コード":"北区","カテゴリリスト":"スポーツ"},"geometry":{"type":"Point","coordinates":[135.105794,34.769715]}},{"type":"Feature","properties":{"﻿施設ID":"1065","施設名":"サイクリング神出サイクリングターミナル","郵便番号":"651-2332","住所":"西区神出町北","方書":"神出ファームビレッジ内","電話番号":"078-965-2014","FAX番号":"","行政区コード":"西区","カテゴリリスト":"スポーツ"},"geometry":{"type":"Point","coordinates":[134.981109,34.751538]}},{"type":"Feature","properties":{"﻿施設ID":"1066","施設名":"乗馬しあわせの村馬事公苑","郵便番号":"651-1102","住所":"北区山田町下谷上字中一里山14-1","方書":"","電話番号":"078-743-8022","FAX番号":"","行政区コード":"北区","カテゴリリスト":"スポーツ"},"geometry":{"type":"Point","coordinates":[135.11564,34.715377]}},{"type":"Feature","properties":{"﻿施設ID":"1068","施設名":"スポーツ広場（フットサルコートテニスコート）北神戸田園スポーツ公園","郵便番号":"651-1311","住所":"北区有野町二郎","方書":"","電話番号":"078-951-5901","FAX番号":"","行政区コード":"北区","カテゴリリスト":"スポーツ"},"geometry":{"type":"Point","coordinates":[135.220574,34.847301]}},{"type":"Feature","properties":{"﻿施設ID":"1069","施設名":"軽スポーツ広場垂水健康公園","郵便番号":"655-0852","住所":"垂水区名谷町字丸尾","方書":"","電話番号":"078-709-2400","FAX番号":"","行政区コード":"垂水区","カテゴリリスト":"スポーツ"},"geometry":{"type":"Point","coordinates":[135.063715,34.657597]}},{"type":"Feature","properties":{"﻿施設ID":"1070","施設名":"フットサルコート・多目的グラウンド垂水スポーツガーデン","郵便番号":"655-0892","住所":"垂水区平磯1","方書":"","電話番号":"078-751-1212","FAX番号":"","行政区コード":"垂水区","カテゴリリスト":"スポーツ"},"geometry":{"type":"Point","coordinates":[135.061897,34.626549]}},{"type":"Feature","properties":{"﻿施設ID":"1071","施設名":"トレーニングセンター北神戸田園スポーツ公園","郵便番号":"651-1311","住所":"北区有野町二郎","方書":"","電話番号":"078-951-5901","FAX番号":"","行政区コード":"北区","カテゴリリスト":"スポーツ"},"geometry":{"type":"Point","coordinates":[135.222237,34.847524]}},{"type":"Feature","properties":{"﻿施設ID":"1072","施設名":"グリーンアリーナ神戸トレーニングセンター","郵便番号":"654-0163","住所":"須磨区緑台","方書":"神戸総合運動公園内","電話番号":"078-796-1126","FAX番号":"","行政区コード":"須磨区","カテゴリリスト":"スポーツ"},"geometry":{"type":"Point","coordinates":[135.074519,34.678316]}},{"type":"Feature","properties":{"﻿施設ID":"1073","施設名":"ポートアイランドスポーツセンター","郵便番号":"650-0046","住所":"中央区港島中町6-12-1","方書":"","電話番号":"078-302-1031","FAX番号":"","行政区コード":"中央区","カテゴリリスト":"スポーツ"},"geometry":{"type":"Point","coordinates":[135.210713,34.663116]}},{"type":"Feature","properties":{"﻿施設ID":"3121","施設名":"兵庫県立文化体育館","郵便番号":"653-0837","住所":"神戸市長田区蓮池町1-1","方書":"","電話番号":"078-631-1701","FAX番号":"078-631-1073","行政区コード":"長田区","カテゴリリスト":"スポーツ"},"geometry":{"type":"Point","coordinates":[135.14386,34.663493]}},{"type":"Feature","properties":{"﻿施設ID":"1074","施設名":"神戸市総合インフォメーションセンター","郵便番号":"651-0096","住所":"中央区雲井通8丁目","方書":"ＪＲ三ノ宮駅東口南側","電話番号":"078-322-0220","FAX番号":"078-322-1201","行政区コード":"中央区","カテゴリリスト":"レジャー施設"},"geometry":{"type":"Point","coordinates":[135.195166,34.694415]}},{"type":"Feature","properties":{"﻿施設ID":"1075","施設名":"有馬温泉観光総合案内所","郵便番号":"651-1401","住所":"北区有馬町790-3","方書":"","電話番号":"078-904-0708","FAX番号":"078-903-2233","行政区コード":"北区","カテゴリリスト":"レジャー施設"},"geometry":{"type":"Point","coordinates":[135.247654,34.797772]}},{"type":"Feature","properties":{"﻿施設ID":"1076","施設名":"新神戸駅観光案内所","郵便番号":"650-0001","住所":"中央区加納町1-3-1","方書":"","電話番号":"078-241-9550","FAX番号":"078-242-5420","行政区コード":"中央区","カテゴリリスト":"レジャー施設"},"geometry":{"type":"Point","coordinates":[135.195688,34.706315]}},{"type":"Feature","properties":{"﻿施設ID":"1077","施設名":"北野観光案内所","郵便番号":"650-0002","住所":"中央区北野町3-10-20","方書":"","電話番号":"078-251-8360","FAX番号":"078-251-8530","行政区コード":"中央区","カテゴリリスト":"レジャー施設"},"geometry":{"type":"Point","coordinates":[135.189847,34.701373]}},{"type":"Feature","properties":{"﻿施設ID":"1078","施設名":"神戸空港総合案内所","郵便番号":"650-0048","住所":"中央区神戸空港1","方書":"","電話番号":"078-304-7777","FAX番号":"078-304-0678","行政区コード":"中央区","カテゴリリスト":"レジャー施設"},"geometry":{"type":"Point","coordinates":[135.228762,34.636888]}},{"type":"Feature","properties":{"﻿施設ID":"1094","施設名":"王子動物園","郵便番号":"657-0838","住所":"灘区王子町3-1","方書":"","電話番号":"078-861-5624","FAX番号":"078-861-5640","行政区コード":"灘区","カテゴリリスト":"レジャー施設"},"geometry":{"type":"Point","coordinates":[135.214898,34.710514]}},{"type":"Feature","properties":{"﻿施設ID":"1095","施設名":"旧ハンター住宅","郵便番号":"657-0838","住所":"灘区王子町3-1","方書":"","電話番号":"078-861-5624","FAX番号":"078-861-5640","行政区コード":"灘区","カテゴリリスト":"レジャー施設"},"geometry":{"type":"Point","coordinates":[135.215,34.712194]}},{"type":"Feature","properties":{"﻿施設ID":"1096","施設名":"神戸文学館","郵便番号":"657-0838","住所":"灘区王子町3-1-2","方書":"","電話番号":"078-882-2028","FAX番号":"078-882-2028","行政区コード":"灘区","カテゴリリスト":"レジャー施設"},"geometry":{"type":"Point","coordinates":[135.21322,34.709101]}},{"type":"Feature","properties":{"﻿施設ID":"1097","施設名":"兵庫県立美術館「芸術の館」","郵便番号":"651-0073","住所":"中央区脇浜海岸通1-1-1","方書":"","電話番号":"078-262-0901","FAX番号":"078-262-0903","行政区コード":"中央区","カテゴリリスト":"レジャー施設"},"geometry":{"type":"Point","coordinates":[135.218114,34.699041]}},{"type":"Feature","properties":{"﻿施設ID":"1098","施設名":"阪神・淡路大震災記念人と防災未来センター","郵便番号":"651-0073","住所":"中央区脇浜海岸通1-5-2","方書":"","電話番号":"078-262-5050","FAX番号":"078-262-5055","行政区コード":"中央区","カテゴリリスト":"レジャー施設"},"geometry":{"type":"Point","coordinates":[135.214614,34.698214]}},{"type":"Feature","properties":{"﻿施設ID":"1099","施設名":"神戸ファッション美術館","郵便番号":"658-0032","住所":"東灘区向洋町中2-9-1","方書":"","電話番号":"078-858-0050","FAX番号":"078-858-0058","行政区コード":"東灘区","カテゴリリスト":"レジャー施設"},"geometry":{"type":"Point","coordinates":[135.270177,34.68803]}},{"type":"Feature","properties":{"﻿施設ID":"1100","施設名":"神戸ゆかりの美術館","郵便番号":"658-0032","住所":"東灘区向洋町中2-9-1","方書":"（神戸ファッション美術館1F）","電話番号":"078-858-1520","FAX番号":"078-858-1522","行政区コード":"東灘区","カテゴリリスト":"レジャー施設"},"geometry":{"type":"Point","coordinates":[135.270655,34.688303]}},{"type":"Feature","properties":{"﻿施設ID":"1101","施設名":"小磯記念美術館","郵便番号":"658-0032","住所":"東灘区向洋町中5-7","方書":"","電話番号":"078-857-5880","FAX番号":"078-857-3737","行政区コード":"東灘区","カテゴリリスト":"レジャー施設"},"geometry":{"type":"Point","coordinates":[135.267214,34.692799]}},{"type":"Feature","properties":{"﻿施設ID":"1102","施設名":"神戸市立博物館","郵便番号":"650-0034","住所":"中央区京町24","方書":"","電話番号":"078-391-0035","FAX番号":"078-392-7054","行政区コード":"中央区","カテゴリリスト":"レジャー施設"},"geometry":{"type":"Point","coordinates":[135.192884,34.687272]}},{"type":"Feature","properties":{"﻿施設ID":"1103","施設名":"神戸ポートタワー","郵便番号":"650-0042","住所":"中央区波止場町5-5","方書":"","電話番号":"078-391-6751","FAX番号":"078-321-1072","行政区コード":"中央区","カテゴリリスト":"レジャー施設"},"geometry":{"type":"Point","coordinates":[135.186734,34.682617]}},{"type":"Feature","properties":{"﻿施設ID":"1104","施設名":"神戸海洋博物館・カワサキワールド","郵便番号":"650-0042","住所":"中央区波止場町2-2","方書":"","電話番号":"078-327-8983","FAX番号":"078-391-6756","行政区コード":"中央区","カテゴリリスト":"レジャー施設"},"geometry":{"type":"Point","coordinates":[135.188334,34.68292]}},{"type":"Feature","properties":{"﻿施設ID":"1105","施設名":"神戸港震災メモリアルパーク","郵便番号":"650-0042","住所":"中央区波止場町2","方書":"メリケンパーク内","電話番号":"078-327-8983","FAX番号":"078-322-4739","行政区コード":"中央区","カテゴリリスト":"レジャー施設"},"geometry":{"type":"Point","coordinates":[135.190064,34.683696]}},{"type":"Feature","properties":{"﻿施設ID":"1110","施設名":"神戸市水の科学博物館","郵便番号":"652-0004","住所":"兵庫区楠谷町37-1","方書":"","電話番号":"078-351-4488","FAX番号":"078-351-4343","行政区コード":"兵庫区","カテゴリリスト":"レジャー施設"},"geometry":{"type":"Point","coordinates":[135.175819,34.694057]}},{"type":"Feature","properties":{"﻿施設ID":"1111","施設名":"みなと異人館","郵便番号":"650-0045","住所":"中央区港島2-2","方書":"","電話番号":"078-302-0976","FAX番号":"","行政区コード":"中央区","カテゴリリスト":"レジャー施設"},"geometry":{"type":"Point","coordinates":[135.203921,34.676773]}},{"type":"Feature","properties":{"﻿施設ID":"1112","施設名":"バンドー神戸青少年科学館","郵便番号":"650-0046","住所":"中央区港島中町7-7-6","方書":"","電話番号":"078-302-5177","FAX番号":"078-302-4816","行政区コード":"中央区","カテゴリリスト":"レジャー施設"},"geometry":{"type":"Point","coordinates":[135.218285,34.666]}},{"type":"Feature","properties":{"﻿施設ID":"1114","施設名":"相楽園","郵便番号":"650-0004","住所":"中央区中山手通5-3-1","方書":"","電話番号":"078-351-5155","FAX番号":"","行政区コード":"中央区","カテゴリリスト":"レジャー施設"},"geometry":{"type":"Point","coordinates":[135.181797,34.69261]}},{"type":"Feature","properties":{"﻿施設ID":"1115","施設名":"旧ハッサム住宅","郵便番号":"650-0004","住所":"中央区中山手通5-3-1","方書":"","電話番号":"078-351-5155","FAX番号":"","行政区コード":"中央区","カテゴリリスト":"レジャー施設"},"geometry":{"type":"Point","coordinates":[135.181623,34.693151]}},{"type":"Feature","properties":{"﻿施設ID":"1117","施設名":"北野工房のまち","郵便番号":"650-0004","住所":"中央区中山手通3-17-1","方書":"","電話番号":"078-200-3607","FAX番号":"078-221-6869","行政区コード":"中央区","カテゴリリスト":"レジャー施設"},"geometry":{"type":"Point","coordinates":[135.187148,34.695566]}},{"type":"Feature","properties":{"﻿施設ID":"1118","施設名":"風見鶏の館","郵便番号":"650-0002","住所":"中央区北野町3-13-3","方書":"","電話番号":"078-242-3223","FAX番号":"078-242-3253","行政区コード":"中央区","カテゴリリスト":"レジャー施設"},"geometry":{"type":"Point","coordinates":[135.189475,34.701396]}},{"type":"Feature","properties":{"﻿施設ID":"1119","施設名":"ラインの館","郵便番号":"650-0002","住所":"中央区北野町2-10-24","方書":"","電話番号":"078-222-3403","FAX番号":"078-222-3403","行政区コード":"中央区","カテゴリリスト":"レジャー施設"},"geometry":{"type":"Point","coordinates":[135.191203,34.701126]}},{"type":"Feature","properties":{"﻿施設ID":"1120","施設名":"萌黄の館","郵便番号":"650-0002","住所":"中央区北野町3-10-11","方書":"","電話番号":"078-222-3310","FAX番号":"078-222-3310","行政区コード":"中央区","カテゴリリスト":"レジャー施設"},"geometry":{"type":"Point","coordinates":[135.189256,34.700979]}},{"type":"Feature","properties":{"﻿施設ID":"1121","施設名":"神戸北野美術館","郵便番号":"650-0002","住所":"中央区北野町2-9-6","方書":"","電話番号":"078-251-0581","FAX番号":"078-251-0581","行政区コード":"中央区","カテゴリリスト":"レジャー施設"},"geometry":{"type":"Point","coordinates":[135.191522,34.701284]}},{"type":"Feature","properties":{"﻿施設ID":"1122","施設名":"うろこの家・うろこ美術館","郵便番号":"650-0002","住所":"中央区北野町2-20-4","方書":"","電話番号":"078-242-6530","FAX番号":"078-241-5537","行政区コード":"中央区","カテゴリリスト":"レジャー施設"},"geometry":{"type":"Point","coordinates":[135.190678,34.702965]}},{"type":"Feature","properties":{"﻿施設ID":"1123","施設名":"神戸布引ハーブ園/ロープウェイ","郵便番号":"650-0002","住所":"中央区北野町1-4-3","方書":"","電話番号":"078-271-1160","FAX番号":"078-271-1180","行政区コード":"中央区","カテゴリリスト":"レジャー施設"},"geometry":{"type":"Point","coordinates":[135.191166,34.717073]}},{"type":"Feature","properties":{"﻿施設ID":"1124","施設名":"須磨海浜水族園","郵便番号":"654-0049","住所":"須磨区若宮町1-3-5","方書":"","電話番号":"078-731-7301","FAX番号":"078-733-6333","行政区コード":"須磨区","カテゴリリスト":"レジャー施設"},"geometry":{"type":"Point","coordinates":[135.127759,34.643956]}},{"type":"Feature","properties":{"﻿施設ID":"1125","施設名":"須磨離宮公園","郵便番号":"654-0018","住所":"須磨区東須磨1-1","方書":"","電話番号":"078-732-6688","FAX番号":"078-734-6022","行政区コード":"須磨区","カテゴリリスト":"レジャー施設"},"geometry":{"type":"Point","coordinates":[135.11636,34.653502]}},{"type":"Feature","properties":{"﻿施設ID":"1126","施設名":"須磨海づり公園","郵便番号":"654-0076","住所":"神戸市須磨区一ノ谷町５丁目地先","方書":"","電話番号":"078-735-2907","FAX番号":"078-735-2950","行政区コード":"須磨区","カテゴリリスト":"レジャー施設"},"geometry":{"type":"Point","coordinates":[135.10456,34.634267]}},{"type":"Feature","properties":{"﻿施設ID":"1127","施設名":"シーパル須磨","郵便番号":"654-0055","住所":"須磨区須磨浦通1-1-1","方書":"","電話番号":"078-731-6815","FAX番号":"078-734-1896","行政区コード":"須磨区","カテゴリリスト":"レジャー施設"},"geometry":{"type":"Point","coordinates":[135.122499,34.643526]}},{"type":"Feature","properties":{"﻿施設ID":"1128","施設名":"須磨浦ロープウェイ須磨浦山上遊園","郵便番号":"654-0076","住所":"須磨区一ノ谷町5-3- 2","方書":"","電話番号":"078-731-2520","FAX番号":"078-731-5471","行政区コード":"須磨区","カテゴリリスト":"レジャー施設"},"geometry":{"type":"Point","coordinates":[135.092825,34.641971]}},{"type":"Feature","properties":{"﻿施設ID":"1129","施設名":"平磯海づり公園","郵便番号":"655-0892","住所":"垂水区平磯1-1-66","方書":"","電話番号":"078-753-3973","FAX番号":"","行政区コード":"垂水区","カテゴリリスト":"レジャー施設"},"geometry":{"type":"Point","coordinates":[135.068806,34.627364]}},{"type":"Feature","properties":{"﻿施設ID":"1130","施設名":"五色塚古墳","郵便番号":"655-0035","住所":"垂水区五色山4-1-12","方書":"","電話番号":"078-707-3131","FAX番号":"","行政区コード":"垂水区","カテゴリリスト":"レジャー施設"},"geometry":{"type":"Point","coordinates":[135.045756,34.629749]}},{"type":"Feature","properties":{"﻿施設ID":"1131","施設名":"舞子ビラ神戸","郵便番号":"655-0047","住所":"垂水区東舞子町18-11","方書":"","電話番号":"078-706-3711","FAX番号":"","行政区コード":"垂水区","カテゴリリスト":"レジャー施設"},"geometry":{"type":"Point","coordinates":[135.0388,34.63131]}},{"type":"Feature","properties":{"﻿施設ID":"1132","施設名":"アジュール舞子","郵便番号":"655-0036","住所":"垂水区海岸通11","方書":"","電話番号":"078-706-2011","FAX番号":"","行政区コード":"垂水区","カテゴリリスト":"レジャー施設"},"geometry":{"type":"Point","coordinates":[135.041351,34.627663]}},{"type":"Feature","properties":{"﻿施設ID":"1133","施設名":"マリンピア神戸水産体験学習館","郵便番号":"655-0036","住所":"垂水区海岸通12-4","方書":"","電話番号":"078-706-5550","FAX番号":"","行政区コード":"垂水区","カテゴリリスト":"レジャー施設"},"geometry":{"type":"Point","coordinates":[135.048189,34.624844]}},{"type":"Feature","properties":{"﻿施設ID":"1143","施設名":"神戸総合運動公園","郵便番号":"654-0163","住所":"須磨区緑台","方書":"","電話番号":"078-795-5151","FAX番号":"","行政区コード":"須磨区","カテゴリリスト":"レジャー施設"},"geometry":{"type":"Point","coordinates":[135.080268,34.682143]}},{"type":"Feature","properties":{"﻿施設ID":"1144","施設名":"神戸ワイナリー（農業公園）","郵便番号":"651-2204","住所":"西区押部谷町高和1557- 1","方書":"","電話番号":"078-991-3911","FAX番号":"","行政区コード":"西区","カテゴリリスト":"レジャー施設"},"geometry":{"type":"Point","coordinates":[135.040337,34.732478]}},{"type":"Feature","properties":{"﻿施設ID":"1146","施設名":"神戸市埋蔵文化財センター","郵便番号":"651-2273","住所":"西区糀台6-1","方書":"","電話番号":"078-992-0656","FAX番号":"078-992-5201","行政区コード":"西区","カテゴリリスト":"レジャー施設"},"geometry":{"type":"Point","coordinates":[135.017866,34.714961]}},{"type":"Feature","properties":{"﻿施設ID":"1147","施設名":"天然ラジウム温泉太山寺 なでしこの湯","郵便番号":"651-2108","住所":"西区伊川谷町前開270-1","方書":"","電話番号":"078-977-0261","FAX番号":"","行政区コード":"西区","カテゴリリスト":"レジャー施設"},"geometry":{"type":"Point","coordinates":[135.063683,34.695764]}},{"type":"Feature","properties":{"﻿施設ID":"1149","施設名":"しあわせの村","郵便番号":"651-1102","住所":"北区山田町下谷上字中一里山14-1","方書":"","電話番号":"078-743-8000","FAX番号":"","行政区コード":"北区","カテゴリリスト":"レジャー施設"},"geometry":{"type":"Point","coordinates":[135.115466,34.707572]}},{"type":"Feature","properties":{"﻿施設ID":"1151","施設名":"フルーツ・フラワーパーク","郵便番号":"651-1522","住所":"北区大沢町上大沢2150","方書":"","電話番号":"078-954-1000","FAX番号":"","行政区コード":"北区","カテゴリリスト":"レジャー施設"},"geometry":{"type":"Point","coordinates":[135.191777,34.845755]}},{"type":"Feature","properties":{"﻿施設ID":"1152","施設名":"北神戸田園スポーツ公園","郵便番号":"651-1311","住所":"北区有野町二郎753-1","方書":"","電話番号":"078-951-5901","FAX番号":"","行政区コード":"北区","カテゴリリスト":"レジャー施設"},"geometry":{"type":"Point","coordinates":[135.222674,34.846569]}},{"type":"Feature","properties":{"﻿施設ID":"1153","施設名":"神戸市立森林植物園","郵便番号":"651-1242","住所":"北区山田町上谷上長尾1-2","方書":"","電話番号":"078-591-0253","FAX番号":"078-594-2324","行政区コード":"北区","カテゴリリスト":"レジャー施設"},"geometry":{"type":"Point","coordinates":[135.178104,34.740846]}},{"type":"Feature","properties":{"﻿施設ID":"1154","施設名":"神戸市立六甲山牧場","郵便番号":"657-0101","住所":"灘区六甲山町中一里山1-1","方書":"","電話番号":"078-891-0280","FAX番号":"078-891-0592","行政区コード":"灘区","カテゴリリスト":"レジャー施設"},"geometry":{"type":"Point","coordinates":[135.209069,34.751581]}},{"type":"Feature","properties":{"﻿施設ID":"1157","施設名":"神戸市立自然の家","郵便番号":"657-0101","住所":"灘区六甲山町中一里山1-1","方書":"","電話番号":"078-891-0001","FAX番号":"","行政区コード":"灘区","カテゴリリスト":"レジャー施設"},"geometry":{"type":"Point","coordinates":[135.213477,34.743752]}},{"type":"Feature","properties":{"﻿施設ID":"1165","施設名":"まやビューライン星の駅","郵便番号":"657-0105","住所":"灘区摩耶山町2-2","方書":"","電話番号":"078-861-2998","FAX番号":"","行政区コード":"灘区","カテゴリリスト":"レジャー施設"},"geometry":{"type":"Point","coordinates":[135.205889,34.733715]}},{"type":"Feature","properties":{"﻿施設ID":"1166","施設名":"六甲ケーブル","郵便番号":"657-0101","住所":"灘区六甲山町一ヶ谷1-32","方書":"","電話番号":"078-861-5288","FAX番号":"","行政区コード":"灘区","カテゴリリスト":"レジャー施設"},"geometry":{"type":"Point","coordinates":[135.233321,34.737369]}},{"type":"Feature","properties":{"﻿施設ID":"1167","施設名":"六甲有馬ロープウェー","郵便番号":"657-0101","住所":"灘区六甲山町北六甲4512-336","方書":"","電話番号":"078-891-0031","FAX番号":"","行政区コード":"灘区","カテゴリリスト":"レジャー施設"},"geometry":{"type":"Point","coordinates":[135.247098,34.766527]}},{"type":"Feature","properties":{"﻿施設ID":"961","施設名":"東灘図書館","郵便番号":"658-0052","住所":"東灘区住吉東町2-3-40","方書":"東灘区役所南側","電話番号":"078-858-8773","FAX番号":"078-858-8776","行政区コード":"東灘区","カテゴリリスト":"図書館"},"geometry":{"type":"Point","coordinates":[135.266241,34.719247]}},{"type":"Feature","properties":{"﻿施設ID":"962","施設名":"灘図書館","郵便番号":"657-0027","住所":"灘区永手町4-2-1","方書":"フォレスタ六甲2F","電話番号":"078-854-5560","FAX番号":"078-851-4041","行政区コード":"灘区","カテゴリリスト":"図書館"},"geometry":{"type":"Point","coordinates":[135.238352,34.715756]}},{"type":"Feature","properties":{"﻿施設ID":"963","施設名":"中央図書館","郵便番号":"650-0017","住所":"中央区楠町7-2-1","方書":"中央体育館・文化ホール山側/大倉山公園内","電話番号":"078-371-3351","FAX番号":"078-371-5046","行政区コード":"中央区","カテゴリリスト":"図書館"},"geometry":{"type":"Point","coordinates":[135.174149,34.685625]}},{"type":"Feature","properties":{"﻿施設ID":"965","施設名":"三宮図書館","郵便番号":"651-0096","住所":"中央区雲井通5-1-2","方書":"勤労会館1F/中央区役所隣","電話番号":"078-251-5015","FAX番号":"078-251-5614","行政区コード":"中央区","カテゴリリスト":"図書館"},"geometry":{"type":"Point","coordinates":[135.197328,34.694896]}},{"type":"Feature","properties":{"﻿施設ID":"966","施設名":"兵庫図書館","郵便番号":"652-0897","住所":"兵庫区駅南通5-1-1","方書":"キャナルタウンイースト2階","電話番号":"078-682-9501","FAX番号":"078-682-9502","行政区コード":"兵庫区","カテゴリリスト":"図書館"},"geometry":{"type":"Point","coordinates":[135.16553,34.66804]}},{"type":"Feature","properties":{"﻿施設ID":"967","施設名":"北図書館","郵便番号":"651-1114","住所":"北区鈴蘭台西町1-22-1","方書":"北区民センター3・2F/北区役所隣","電話番号":"078-592-7573","FAX番号":"078-595-1297","行政区コード":"北区","カテゴリリスト":"図書館"},"geometry":{"type":"Point","coordinates":[135.143959,34.727259]}},{"type":"Feature","properties":{"﻿施設ID":"968","施設名":"北図書館北神分館","郵便番号":"651-1302","住所":"北区藤原台中町1-2-1","方書":"北神中央ビル5F","電話番号":"078-981-8210","FAX番号":"078-981-8220","行政区コード":"北区","カテゴリリスト":"図書館"},"geometry":{"type":"Point","coordinates":[135.221682,34.821076]}},{"type":"Feature","properties":{"﻿施設ID":"969","施設名":"新長田図書館","郵便番号":"653-0835","住所":"長田区細田町7-1-27","方書":"市営細田住宅2階","電話番号":"078-691-1600","FAX番号":"078-691-2181","行政区コード":"長田区","カテゴリリスト":"図書館"},"geometry":{"type":"Point","coordinates":[135.144568,34.659802]}},{"type":"Feature","properties":{"﻿施設ID":"970","施設名":"須磨図書館","郵便番号":"654-0035","住所":"須磨区中島町1-2-3","方書":"須磨区民センター1F","電話番号":"078-735-7444","FAX番号":"078-735-4313","行政区コード":"須磨区","カテゴリリスト":"図書館"},"geometry":{"type":"Point","coordinates":[135.129328,34.650914]}},{"type":"Feature","properties":{"﻿施設ID":"971","施設名":"垂水図書館","郵便番号":"655-0893","住所":"垂水区日向1-5-1","方書":"レバンテ垂水2番館1F","電話番号":"078-709-7712","FAX番号":"078-709-7713","行政区コード":"垂水区","カテゴリリスト":"図書館"},"geometry":{"type":"Point","coordinates":[135.056872,34.63028]}},{"type":"Feature","properties":{"﻿施設ID":"972","施設名":"西図書館","郵便番号":"651-2273","住所":"西区糀台5-6-1","方書":"西区民センター1階","電話番号":"078-991-8311","FAX番号":"078-992-2583","行政区コード":"西区","カテゴリリスト":"図書館"},"geometry":{"type":"Point","coordinates":[135.018926,34.717876]}},{"type":"Feature","properties":{"﻿施設ID":"973","施設名":"情報ライブラリー","郵便番号":"650-0016","住所":"中央区橘通3-4-3","方書":"あすてっぷKOBE1階","電話番号":"078-361-6977","FAX番号":"078-361-6477","行政区コード":"中央区","カテゴリリスト":"図書館"},"geometry":{"type":"Point","coordinates":[135.174119,34.681848]}},{"type":"Feature","properties":{"﻿施設ID":"974","施設名":"北須磨文化センター図書室","郵便番号":"654-0154","住所":"須磨区中落合3-1-2","方書":"北須磨文化センター2階","電話番号":"078-791-0949","FAX番号":"","行政区コード":"須磨区","カテゴリリスト":"図書館"},"geometry":{"type":"Point","coordinates":[135.095303,34.683968]}},{"type":"Feature","properties":{"﻿施設ID":"975","施設名":"神戸市外国語大学学術情報センター（図書館）","郵便番号":"651-2102","住所":"西区学園東町9-1","方書":"","電話番号":"078-794-8153","FAX番号":"","行政区コード":"西区","カテゴリリスト":"図書館"},"geometry":{"type":"Point","coordinates":[135.060209,34.679924]}},{"type":"Feature","properties":{"﻿施設ID":"2998","施設名":"神戸波止場町TEN×TEN","郵便番号":"650-0042","住所":"中央区波止場町6-5","方書":"","電話番号":"078-351-1335","FAX番号":"078-351-1334","行政区コード":"中央区","カテゴリリスト":"文化・芸術"},"geometry":{"type":"Point","coordinates":[135.184321,34.68408]}},{"type":"Feature","properties":{"﻿施設ID":"3106","施設名":"兵庫県立美術館王子分館","郵便番号":"657-0837","住所":"神戸市灘区原田通3-8-30","方書":"","電話番号":"078-801-1591","FAX番号":"078-861-4731","行政区コード":"灘区","カテゴリリスト":"文化・芸術"},"geometry":{"type":"Point","coordinates":[135.213992,34.708576]}},{"type":"Feature","properties":{"﻿施設ID":"3186","施設名":"北神区民センター・ありまホール","郵便番号":"651-1302","住所":"神戸市北区藤原台中町1-3-1","方書":"","電話番号":"078-987-3400","FAX番号":"078-987-3444","行政区コード":"北区","カテゴリリスト":"文化・芸術"},"geometry":{"type":"Point","coordinates":[135.219435,34.822512]}},{"type":"Feature","properties":{"﻿施設ID":"3187","施設名":"ＫＩＩＴＯ（デザイン・クリエイティブセンター神戸）","郵便番号":"651-0082","住所":"神戸市中央区小野浜町1-4","方書":"","電話番号":"078-325-2201","FAX番号":"078-325-2230","行政区コード":"中央区","カテゴリリスト":"文化・芸術"},"geometry":{"type":"Point","coordinates":[135.198986,34.68522]}}]}